,bfe_nummer,adresse,offentlig_ejendomsværdi,offentlige_grundværdi,seneste_handelspris,enhedsareal_beboelse,pris_pr_m2,seneste_handelsdato,seneste_handlet_andel,handelsmetode,anvendelse,opførelsesår,tinglyst_areal_ejerlejligheder,longitude,latitude,primær_ejers_adresse,vejnavn,husnr,etage,antal_værelser,year,month,day
99,111445,"AmagerBoulevard110,st.tv,2300KøbenhavnS",2250000.0,326700.0,6200000,114.0,54385.0,2022-03-25,100%,Almindeligfrihandel,"Etagebolig-bygning,flerfamiliehusellerto-familiehus",2018.0,101.0,12.59378819,55.66651293,"Stenrosevej1A,2300KøbenhavnS",AmagerBoulevard,110,1.0,4,2022,3,25
100,103789,"Weidekampsgade61,st.th,2300KøbenhavnS",2100000.0,404900.0,4000000,83.0,48192.0,2022-03-24,100%,Almindeligfrihandel,"Etagebolig-bygning,flerfamiliehusellerto-familiehus",2006.0,71.0,12.58163606,55.6673983,"Weidekampsgade61,stth,2300KøbenhavnS",Weidekampsgade,61,1.0,2,2022,3,24
101,135089,"Marengovej12,1.tv,2300KøbenhavnS",1350000.0,167400.0,3845000,78.0,49294.0,2022-03-21,100%,Almindeligfrihandel,"Etagebolig-bygning,flerfamiliehusellerto-familiehus",1935.0,75.0,12.62113554,55.65820336,"Højdevej36,2th,2300KøbenhavnS",Marengovej,12,2.0,4,2022,3,21
103,132821,"Elbagade21,4.th,2300KøbenhavnS",1050000.0,97500.0,2375000,62.0,38306.0,2022-03-15,100%,Almindeligfrihandel,"Etagebolig-bygning,flerfamiliehusellerto-familiehus",1932.0,54.0,12.61341214,55.65372785,"VibyAlle42,2770Kastrup",Elbagade,21,5.0,2,2022,3,15
104,131622,"Caprivej2,1.tv,2300KøbenhavnS",960000.0,82000.0,2725000,56.0,48660.0,2022-03-15,100%,Almindeligfrihandel,"Etagebolig-bygning,flerfamiliehusellerto-familiehus",1937.0,53.0,12.62114697,55.66068112,"Caprivej2,1tv,2300KøbenhavnS",Caprivej,2,2.0,2,2022,3,15
105,140061,"RichardMortensensVej73,5.4,2300KøbenhavnS",1950000.0,441700.0,3995000,97.0,41185.0,2022-03-15,100%,Almindeligfrihandel,"Etagebolig-bygning,flerfamiliehusellerto-familiehus",2010.0,85.0,12.57140911,55.61744812,"RichardMortensensV73,5,-4,2300KøbenhavnS",RichardMortensensVej,73,6.0,3,2022,3,15
106,137429,"Hallandsgade6A,3.tv,2300KøbenhavnS",1000000.0,96700.0,3180000,60.0,53000.0,2022-03-15,100%,Almindeligfrihandel,"Etagebolig-bygning,flerfamiliehusellerto-familiehus",1902.0,52.0,12.59994236,55.66370246,"Hallandsgade6A,3tv,2300KøbenhavnS",Hallandsgade,6,4.0,2,2022,3,15
107,136451,"KvintusAllé14,3.2,2300KøbenhavnS",1900000.0,277300.0,4350000,87.0,50000.0,2022-03-15,100%,Almindeligfrihandel,"Etagebolig-bygning,flerfamiliehusellerto-familiehus",2006.0,80.0,12.61904007,55.65992255,"Møllegade25A,2tv,2200KøbenhavnN",KvintusAllé,14,4.0,3,2022,3,15
108,125520,"Kastrupvej50,2.n,2300KøbenhavnS",1050000.0,165300.0,2350000,63.0,37301.0,2022-03-15,100%,Almindeligfrihandel,"Etagebolig-bygning,flerfamiliehusellerto-familiehus",1970.0,55.0,12.61704456,55.65567681,"None,2300KøbenhavnS",Kastrupvej,50,3.0,2,2022,3,15
109,139152,"RobertJacobsensVej80,4.4,2300KøbenhavnS",1200000.0,249400.0,2970000,60.0,49500.0,2022-03-15,100%,Almindeligfrihandel,"Etagebolig-bygning,flerfamiliehusellerto-familiehus",2010.0,48.0,12.57201842,55.61693824,"Smedevej3B,3480Fredensborg",RobertJacobsensVej,80,5.0,2,2022,3,15
111,109719,"IslandsBrygge36A,5.2,2300KøbenhavnS",2650000.0,311800.0,5400000,78.0,69230.0,2022-03-15,100%,Almindeligfrihandel,"Etagebolig-bygning,flerfamiliehusellerto-familiehus",2012.0,71.0,12.56741573,55.65893424,"IslandsBrygge36A,5,-2,2300KøbenhavnS",IslandsBrygge,36,6.0,3,2022,3,15
112,109298,"IslandsBrygge32A,8.876,2300KøbenhavnS",3250000.0,441400.0,6800000,109.0,62385.0,2022-03-15,100%,Almindeligfrihandel,"Etagebolig-bygning,flerfamiliehusellerto-familiehus",1963.0,70.0,12.56855846,55.6609904,"IslandsBrygge32A,5,-545,2300KøbenhavnS",IslandsBrygge,32,9.0,2,2022,3,15
113,126964,"Tovværkgade6,2.th,2300KøbenhavnS",1200000.0,93500.0,3100000,68.0,45588.0,2022-03-15,100%,Almindeligfrihandel,"Etagebolig-bygning,flerfamiliehusellerto-familiehus",1900.0,62.0,12.60302352,55.66296758,"Svinget21,3tv,2300KøbenhavnS",Tovværkgade,6,3.0,3,2022,3,15
114,136770,"Gårdfæstevej1,1.th,2300KøbenhavnS",750000.0,126600.0,2040000,47.0,43404.0,2022-03-15,100%,Almindeligfrihandel,"Etagebolig-bygning,flerfamiliehusellerto-familiehus",1960.0,41.0,12.5887181,55.64005383,"Gårdfæstevej1,1th,2300KøbenhavnS",Gårdfæstevej,1,2.0,2,2022,3,15
116,137966,"Englandsvej34B,2.th,2300KøbenhavnS",960000.0,120500.0,2245500,63.0,35642.0,2022-03-15,100%,Almindeligfrihandel,"Etagebolig-bygning,flerfamiliehusellerto-familiehus",1935.0,54.0,12.60385907,55.6554835,"PederLykkesVej54,1,-1,2300KøbenhavnS",Englandsvej,34,3.0,2,2022,3,15
117,136552,"Tønnesvej12,1.tv,2300KøbenhavnS",1000000.0,170900.0,2050000,59.0,34745.0,2022-03-15,100%,Almindeligfrihandel,"Etagebolig-bygning,flerfamiliehusellerto-familiehus",1935.0,53.0,12.61852339,55.64543159,"Rønnevej4,4050Skibby",Tønnesvej,12,2.0,2,2022,3,15
118,111971,"IslandsBrygge75B,6.2,2300KøbenhavnS",1950000.0,289500.0,4300000,77.0,55844.0,2022-03-15,100%,Almindeligfrihandel,"Etagebolig-bygning,flerfamiliehusellerto-familiehus",2005.0,65.0,12.56936585,55.65997942,"IslandsBrygge75B,6,-2,2300KøbenhavnS",IslandsBrygge,75,7.0,2,2022,3,15
119,104535,"Hollænderdybet20,1.tv,2300KøbenhavnS",1650000.0,148200.0,5150000,99.0,52020.0,2022-03-06,100%,Almindeligfrihandel,"Etagebolig-bygning,flerfamiliehusellerto-familiehus",1917.0,93.0,12.59707725,55.66447327,"Hollænderdybet20,1tv,2300KøbenhavnS",Hollænderdybet,20,2.0,4,2022,3,6
120,139263,"Hyacintgården13,1.1,2300KøbenhavnS",1100000.0,174500.0,2807500,72.0,38993.0,2022-03-01,100%,Almindeligfrihandel,"Etagebolig-bygning,flerfamiliehusellerto-familiehus",1968.0,69.0,12.61206358,55.6489426,"Hyacintgården13,1,-1,2300KøbenhavnS",Hyacintgården,13,2.0,3,2022,3,1
121,132466,"Jansvej3,st.3,2300KøbenhavnS",780000.0,120300.0,1795000,50.0,35900.0,2022-03-01,100%,Almindeligfrihandel,"Etagebolig-bygning,flerfamiliehusellerto-familiehus",1938.0,48.0,12.61712492,55.64681645,"Jansvej3,st,-3,2300KøbenhavnS",Jansvej,3,1.0,2,2022,3,1
123,140069,"RichardMortensensVej73,7.p5,2300KøbenhavnS",2100000.0,488400.0,4290000,106.0,40471.0,2022-03-01,100%,Almindeligfrihandel,"Etagebolig-bygning,flerfamiliehusellerto-familiehus",2010.0,94.0,12.57140911,55.61744812,"None,2300KøbenhavnS",RichardMortensensVej,73,8.0,3,2022,3,1
124,104163,"Thorshavnsgade17,4.tv,2300KøbenhavnS",3950000.0,694100.0,8600000,143.0,60139.0,2022-03-01,100%,Almindeligfrihandel,"Etagebolig-bygning,flerfamiliehusellerto-familiehus",2006.0,130.0,12.57997298,55.66788792,"Thorshavnsgade17,4tv,2300KøbenhavnS",Thorshavnsgade,17,5.0,4,2022,3,1
126,132538,"Jansvej2,st.3,2300KøbenhavnS",780000.0,118700.0,1925000,50.0,38500.0,2022-03-01,100%,Almindeligfrihandel,"Etagebolig-bygning,flerfamiliehusellerto-familiehus",1939.0,48.0,12.61662735,55.6469108,"Parmagade13,stth,2300KøbenhavnS",Jansvej,2,1.0,2,2022,3,1
127,125498,"Amagerbrogade263B,2.tv,2300KøbenhavnS",1600000.0,230800.0,3395000,93.0,36505.0,2022-03-01,100%,Almindeligfrihandel,"Etagebolig-bygning,flerfamiliehusellerto-familiehus",1938.0,88.0,12.6155371,55.64431219,"Amagerbrogade263B,2tv,2300KøbenhavnS",Amagerbrogade,263,3.0,4,2022,3,1
128,134845,"Frankrigshusene11,st.tv,2300KøbenhavnS",1200000.0,125400.0,3155000,74.0,42635.0,2022-03-01,100%,Almindeligfrihandel,"Etagebolig-bygning,flerfamiliehusellerto-familiehus",1940.0,69.0,12.60732975,55.6625094,"Frankrigshusene11,sttv,2300KøbenhavnS",Frankrigshusene,11,1.0,3,2022,3,1
129,134981,"Holmbladsgade105,st.th,2300KøbenhavnS",890000.0,69900.0,2795000,53.0,52735.0,2022-03-01,100%,Almindeligfrihandel,"Etagebolig-bygning,flerfamiliehusellerto-familiehus",1914.0,45.0,12.61584705,55.66712726,"Holmbladsgade105,stth,2300KøbenhavnS",Holmbladsgade,105,1.0,2,2022,3,1
131,137927,"Sofienhøjvej1,3.314,2300KøbenhavnS",710000.0,80600.0,1900000,44.0,43181.0,2022-03-01,100%,Almindeligfrihandel,"Etagebolig-bygning,flerfamiliehusellerto-familiehus",1975.0,36.0,12.61364441,55.64538347,"Sofienhøjvej1,3,-314,2300KøbenhavnS",Sofienhøjvej,1,4.0,2,2022,3,1
132,421342,"Strandlodsvej23A,2.th,2300KøbenhavnS",2300000.0,286700.0,5695000,101.0,56386.0,2022-03-01,100%,Almindeligfrihandel,"Etagebolig-bygning,flerfamiliehusellerto-familiehus",2021.0,92.0,12.62523023,55.66516955,"Strandlodsvej23A,2th,2300KøbenhavnS",Strandlodsvej,23,3.0,3,2022,3,1
133,133593,"Engvej172,1.tv,2300KøbenhavnS",960000.0,257000.0,2600000,57.0,45614.0,2022-03-01,100%,Almindeligfrihandel,"Etagebolig-bygning,flerfamiliehusellerto-familiehus",1963.0,52.0,12.63428773,55.64634514,"Krimsvej1B,20tv,2300KøbenhavnS",Engvej,172,2.0,2,2022,3,1
134,140082,"RichardMortensensVej75,5.1,2300KøbenhavnS",1950000.0,410500.0,3750000,91.0,41208.0,2022-03-01,100%,Almindeligfrihandel,"Etagebolig-bygning,flerfamiliehusellerto-familiehus",2010.0,79.0,12.57123192,55.61732731,"ElseAlfeltsVej72C,4tv,2300KøbenhavnS",RichardMortensensVej,75,6.0,2,2022,3,1
135,407946,"Rundholtsvej56,2.1,2300KøbenhavnS",2450000.0,279000.0,5430000,96.0,56562.0,2022-03-01,100%,Almindeligfrihandel,"Etagebolig-bygning,flerfamiliehusellerto-familiehus",2014.0,85.0,12.56480672,55.65398841,"Rundholtsvej56,2,-1,2300KøbenhavnS",Rundholtsvej,56,3.0,2,2022,3,1
136,136330,"Kongelundsvej61A,st.th,2300KøbenhavnS",960000.0,272700.0,2295000,69.0,33260.0,2022-03-01,100%,Almindeligfrihandel,"Etagebolig-bygning,flerfamiliehusellerto-familiehus",1969.0,65.0,12.58961747,55.63833863,"Kongelundsvej61A,stth,2300KøbenhavnS",Kongelundsvej,61,1.0,2,2022,3,1
137,136701,"Kongelundsvej71A,st.2,2300KøbenhavnS",680000.0,182800.0,1700000,47.0,36170.0,2022-03-01,100%,Almindeligfrihandel,"Etagebolig-bygning,flerfamiliehusellerto-familiehus",1968.0,44.0,12.59020968,55.63747614,"Kongelundsvej71A,st,-2,2300KøbenhavnS",Kongelundsvej,71,1.0,1,2022,3,1
138,125598,"Kretavej49,1.th,2300KøbenhavnS",1400000.0,118100.0,3650000,85.0,42941.0,2022-03-01,100%,Almindeligfrihandel,"Etagebolig-bygning,flerfamiliehusellerto-familiehus",1935.0,80.0,12.62339849,55.6537671,"Degnevænget18,9520Skørping",Kretavej,49,2.0,3,2022,3,1
141,133165,"Lyneborggade27,st.th,2300KøbenhavnS",1800000.0,260800.0,4200000,90.0,46666.0,2022-03-01,100%,Almindeligfrihandel,"Etagebolig-bygning,flerfamiliehusellerto-familiehus",2006.0,80.0,12.6111992,55.66372629,,Lyneborggade,27,1.0,3,2022,3,1
142,140234,"Østerdalsgade5,st.th,2300KøbenhavnS",1000000.0,140700.0,2895000,74.0,39121.0,2022-03-01,100%,Almindeligfrihandel,"Etagebolig-bygning,flerfamiliehusellerto-familiehus",1936.0,67.0,12.60255002,55.65514486,"Kirsebæralle30,3400Hillerød",Østerdalsgade,5,1.0,3,2022,3,1
143,117864,"C.F.MøllersAllé66,3.th,2300KøbenhavnS",2050000.0,421100.0,4850000,107.0,45327.0,2022-03-01,100%,Almindeligfrihandel,"Etagebolig-bygning,flerfamiliehusellerto-familiehus",2007.0,91.0,12.57771642,55.63446794,"C.F.MøllersAllé66,3th,2300KøbenhavnS",C.F.MøllersAllé,66,4.0,4,2022,3,1
144,135388,"ØresundParkvej15,1.th,2300KøbenhavnS",1650000.0,319200.0,4801000,76.0,63171.0,2022-03-01,100%,Almindeligfrihandel,"Etagebolig-bygning,flerfamiliehusellerto-familiehus",2005.0,63.0,12.62948613,55.66334736,"Japanvej22,2300KøbenhavnS",ØresundParkvej,15,2.0,2,2022,3,1
145,136186,"Reberbanegade39,st.tv,2300KøbenhavnS",890000.0,133700.0,2510000,53.0,47358.0,2022-03-01,100%,Almindeligfrihandel,"Etagebolig-bygning,flerfamiliehusellerto-familiehus",1940.0,48.0,12.6063289,55.66225579,"Egholmvej11,2665VallensbækStrand",Reberbanegade,39,1.0,2,2022,3,1
146,136649,"Florensvej10,2.mf,2300KøbenhavnS",480000.0,63900.0,1450000,26.0,55769.0,2022-03-01,100%,Almindeligfrihandel,"Etagebolig-bygning,flerfamiliehusellerto-familiehus",1940.0,23.0,12.62124061,55.65790846,"Isagervej21D,2,-1,8680Ry",Florensvej,10,3.0,1,2022,3,1
147,133795,"Parmagade42,st.th,2300KøbenhavnS",710000.0,54600.0,2050000,45.0,45555.0,2022-03-01,100%,Almindeligfrihandel,"Etagebolig-bygning,flerfamiliehusellerto-familiehus",1934.0,40.0,12.61634482,55.65319428,"Dannesk-SamsøesAllé40,sttv,1434KøbenhavnK",Parmagade,42,1.0,2,2022,3,1
148,139801,"Englandsvej38A,4.tv,2300KøbenhavnS",960000.0,82700.0,2695000,60.0,44916.0,2022-03-01,100%,Almindeligfrihandel,"Etagebolig-bygning,flerfamiliehusellerto-familiehus",1936.0,54.0,12.60329546,55.65485967,"Hørsholmsgade24,2th,2200KøbenhavnN",Englandsvej,38,5.0,2,2022,3,1
149,103784,"Weidekampsgade59,5.th,2300KøbenhavnS",2600000.0,462000.0,5250000,93.0,56451.0,2022-03-01,100%,Almindeligfrihandel,"Etagebolig-bygning,flerfamiliehusellerto-familiehus",2006.0,81.0,12.58182392,55.66731458,"Schubertsvej13,2tv,2450KøbenhavnSV",Weidekampsgade,59,6.0,3,2022,3,1
151,126034,"Kastrupvej69,1.tv,2300KøbenhavnS",920000.0,56200.0,2495000,50.0,49900.0,2022-03-01,100%,Almindeligfrihandel,"Etagebolig-bygning,flerfamiliehusellerto-familiehus",1900.0,42.0,12.61928688,55.65392526,"Kastrupvej69,1tv,2300KøbenhavnS",Kastrupvej,69,2.0,2,2022,3,1
152,125580,"Kastrupvej77,4.th,2300KøbenhavnS",1150000.0,174100.0,3150000,66.0,47727.0,2022-03-01,100%,Almindeligfrihandel,"Etagebolig-bygning,flerfamiliehusellerto-familiehus",1937.0,61.0,12.61967852,55.65332013,"Kastrupvej77,4th,2300KøbenhavnS",Kastrupvej,77,5.0,3,2022,3,1
153,141088,"RobertJacobsensVej91,8.,2300KøbenhavnS",2100000.0,434400.0,6525000,105.0,62142.0,2022-03-01,100%,Almindeligfrihandel,"Etagebolig-bygning,flerfamiliehusellerto-familiehus",2009.0,89.0,12.5731217,55.61668163,"Nansensgade62,1th,1366KøbenhavnK",RobertJacobsensVej,91,9.0,4,2022,3,1
154,132237,"Kastrupvej2,2.th,2300KøbenhavnS",1950000.0,149000.0,4540000,102.0,44509.0,2022-03-01,100%,Almindeligfrihandel,"Etagebolig-bygning,flerfamiliehusellerto-familiehus",1906.0,93.0,12.61395619,55.66035237,"Kastrupvej2,2th,2300KøbenhavnS",Kastrupvej,2,3.0,4,2022,3,1
155,139791,"Englandsvej38A,st.tv,2300KøbenhavnS",850000.0,82700.0,2300000,60.0,38333.0,2022-03-01,100%,Almindeligfrihandel,"Etagebolig-bygning,flerfamiliehusellerto-familiehus",1936.0,54.0,12.60329546,55.65485967,"Lundtoftegårdsvej5,13tv,2800KongensLyngby",Englandsvej,38,1.0,2,2022,3,1
157,140568,"RobertJacobsensVej70,5.4,2300KøbenhavnS",1650000.0,441700.0,4000000,97.0,41237.0,2022-03-01,100%,Almindeligfrihandel,"Etagebolig-bygning,flerfamiliehusellerto-familiehus",2010.0,85.0,12.57207819,55.61774495,"RobertJacobsensVej70,5,-4,2300KøbenhavnS",RobertJacobsensVej,70,6.0,3,2022,3,1
158,131096,"PragsBoulevard50,3.th,2300KøbenhavnS",960000.0,142600.0,2600000,60.0,43333.0,2022-03-01,100%,Almindeligfrihandel,"Etagebolig-bygning,flerfamiliehusellerto-familiehus",1937.0,54.0,12.61285387,55.66722162,"Rudbølvej61,8600Silkeborg",PragsBoulevard,50,4.0,2,2022,3,1
159,128783,"Rodosvej61,st.th,2300KøbenhavnS",1350000.0,277100.0,4150000,78.0,53205.0,2022-03-01,100%,Almindeligfrihandel,"Etagebolig-bygning,flerfamiliehusellerto-familiehus",1950.0,73.0,12.61928302,55.65162613,"Rodosvej61,stth,2300KøbenhavnS",Rodosvej,61,1.0,3,2022,3,1
160,130238,"Siciliensgade7,3.th,2300KøbenhavnS",900000.0,107100.0,2350000,52.0,45192.0,2022-03-01,100%,Almindeligfrihandel,"Etagebolig-bygning,flerfamiliehusellerto-familiehus",1936.0,48.0,12.61839444,55.65312516,"Tjørnevej6,7830Vinderup",Siciliensgade,7,4.0,2,2022,3,1
161,119176,"EdvardThomsensVej69,1.4,2300KøbenhavnS",2300000.0,510800.0,4150000,118.0,35169.0,2022-03-01,100%,Almindeligfrihandel,"Etagebolig-bygning,flerfamiliehusellerto-familiehus",2007.0,93.0,12.57810851,55.63263825,"HansJensensVej25,2900Hellerup",EdvardThomsensVej,69,2.0,4,2022,3,1
162,142940,"Sundholmsvej109,1.th,2300KøbenhavnS",1000000.0,64400.0,2720000,68.0,40000.0,2022-03-01,100%,Almindeligfrihandel,"Etagebolig-bygning,flerfamiliehusellerto-familiehus",1939.0,62.0,12.60508929,55.65746646,"Sundholmsvej109,1th,2300KøbenhavnS",Sundholmsvej,109,2.0,2,2022,3,1
163,415769,"RobertJacobsensVej8,7.tv,2300KøbenhavnS",2700000.0,622100.0,5950000,124.0,47983.0,2022-03-01,100%,Almindeligfrihandel,"Etagebolig-bygning,flerfamiliehusellerto-familiehus",2017.0,117.0,12.57467044,55.62360477,"RobertJacobsensVej8,7tv,2300KøbenhavnS",RobertJacobsensVej,8,8.0,4,2022,3,1
164,136662,"Florensvej9,st.mf,2300KøbenhavnS",440000.0,63900.0,1350000,26.0,51923.0,2022-03-01,100%,Almindeligfrihandel,"Etagebolig-bygning,flerfamiliehusellerto-familiehus",1940.0,23.0,12.62163322,55.65757711,"Nollundvej117,7200Grindsted",Florensvej,9,1.0,1,2022,3,1
165,102859,"Weidekampsgade35,2.tv,2300KøbenhavnS",2250000.0,441800.0,4695000,83.0,56566.0,2022-03-01,100%,Almindeligfrihandel,"Etagebolig-bygning,flerfamiliehusellerto-familiehus",2007.0,72.0,12.58265573,55.66696594,"Weidekampsgade35,2tv,2300KøbenhavnS",Weidekampsgade,35,3.0,3,2022,3,1
166,112971,"ØrestadsBoulevard57A,9.910,2300KøbenhavnS",2200000.0,463900.0,3950000,108.0,36574.0,2022-03-01,100%,Almindeligfrihandel,"Etagebolig-bygning,flerfamiliehusellerto-familiehus",2005.0,91.0,12.58224692,55.63443774,"SchulinParken8,4340Tølløse",ØrestadsBoulevard,57,10.0,3,2022,3,1
167,106840,"Markmandsgade17,st.tv,2300KøbenhavnS",2700000.0,392000.0,5050000,100.0,50500.0,2022-03-01,100%,Almindeligfrihandel,"Etagebolig-bygning,flerfamiliehusellerto-familiehus",2014.0,88.0,12.59991874,55.66814461,"Markmandsgade17,sttv,2300KøbenhavnS",Markmandsgade,17,1.0,3,2022,3,1
168,108761,"Artillerivej116,4.th,2300KøbenhavnS",3450000.0,264700.0,5725000,102.0,56127.0,2022-03-01,100%,Almindeligfrihandel,"Etagebolig-bygning,flerfamiliehusellerto-familiehus",2008.0,99.0,12.5706781,55.65855556,"Artillerivej116,4th,2300KøbenhavnS",Artillerivej,116,5.0,3,2022,3,1
169,422642,"DorisLessingsVej31,3.tv,2300KøbenhavnS",1650000.0,165800.0,3425000,78.0,43910.0,2022-03-01,100%,Almindeligfrihandel,"Etagebolig-bygning,flerfamiliehusellerto-familiehus",2017.0,68.0,12.57566304,55.63687546,"Dalslandsgade8M,1,-212,2300KøbenhavnS",DorisLessingsVej,31,4.0,3,2022,3,1
170,137490,"Lysefjordsgade3,1.tv,2300KøbenhavnS",960000.0,116300.0,2500000,58.0,43103.0,2022-03-01,100%,Almindeligfrihandel,"Etagebolig-bygning,flerfamiliehusellerto-familiehus",1912.0,52.0,12.59960307,55.6582047,"N.J.FjordsAlle18,4tv,1957FrederiksbergC",Lysefjordsgade,3,2.0,2,2022,3,1
173,138754,"RobertJacobsensVej78,1.t2,2300KøbenhavnS",2400000.0,566400.0,4595000,121.0,37975.0,2022-03-01,100%,Almindeligfrihandel,"Etagebolig-bygning,flerfamiliehusellerto-familiehus",2010.0,109.0,12.57205823,55.6171277,"None,2300KøbenhavnS",RobertJacobsensVej,78,2.0,5,2022,3,1
174,141057,"RobertJacobsensVej89,4.tv,2300KøbenhavnS",2150000.0,449000.0,6325000,106.0,59669.0,2022-03-01,100%,Almindeligfrihandel,"Etagebolig-bygning,flerfamiliehusellerto-familiehus",2009.0,92.0,12.57292508,55.61666677,"Byvej34,3320Skævinge",RobertJacobsensVej,89,5.0,3,2022,3,1
175,407509,"Rundholtsvej26,1.3,2300KøbenhavnS",3900000.0,437600.0,8775000,149.0,58892.0,2022-03-01,100%,Almindeligfrihandel,"Etagebolig-bygning,flerfamiliehusellerto-familiehus",2014.0,138.0,12.56544284,55.65346915,"Rundholtsvej26,1,-3,2300KøbenhavnS",Rundholtsvej,26,2.0,4,2022,3,1
176,134924,"Holmbladsgade70D,2.th,2300KøbenhavnS",2300000.0,288100.0,7625000,130.0,58653.0,2022-03-01,100%,Almindeligfrihandel,"Etagebolig-bygning,flerfamiliehusellerto-familiehus",1917.0,130.0,12.61145229,55.66578806,"Holmbladsgade70D,2th,2300KøbenhavnS",Holmbladsgade,70,3.0,4,2022,3,1
177,418163,"AmagerStrandvej162C,7.tv,2300KøbenhavnS",3650000.0,519700.0,11500000,155.0,74193.0,2022-03-01,100%,Almindeligfrihandel,"Etagebolig-bygning,flerfamiliehusellerto-familiehus",2014.0,136.0,12.63397703,55.65850699,"AmagerStrandvej162C,7tv,2300KøbenhavnS",AmagerStrandvej,162,8.0,5,2022,3,1
178,120650,"TomKristensensVej44,1.tv,2300KøbenhavnS",1850000.0,414600.0,4615000,95.0,48578.0,2022-03-01,100%,Almindeligfrihandel,"Etagebolig-bygning,flerfamiliehusellerto-familiehus",2006.0,87.0,12.58508453,55.6614912,"TomKristensensVej44,1tv,2300KøbenhavnS",TomKristensensVej,44,2.0,3,2022,3,1
179,130703,"Kastrupvej86,4.tv,2300KøbenhavnS",940000.0,116200.0,2425000,53.0,45754.0,2022-03-01,100%,Almindeligfrihandel,"Etagebolig-bygning,flerfamiliehusellerto-familiehus",1936.0,48.0,12.61929914,55.65319358,"Kastrupvej86,4tv,2300KøbenhavnS",Kastrupvej,86,5.0,2,2022,3,1
180,130235,"Siciliensgade7,2.th,2300KøbenhavnS",900000.0,107100.0,2375000,52.0,45673.0,2022-03-01,100%,Almindeligfrihandel,"Etagebolig-bygning,flerfamiliehusellerto-familiehus",1936.0,48.0,12.61839444,55.65312516,"Siciliensgade7,2th,2300KøbenhavnS",Siciliensgade,7,3.0,2,2022,3,1
181,121023,"TomKristensensVej40,3.th,2300KøbenhavnS",1750000.0,390700.0,4750000,90.0,52777.0,2022-03-01,100%,Almindeligfrihandel,"Etagebolig-bygning,flerfamiliehusellerto-familiehus",2006.0,82.0,12.58547066,55.66147469,"TomKristensensVej40,3th,2300KøbenhavnS",TomKristensensVej,40,4.0,3,2022,3,1
182,122870,"TychoBrahesAllé1,2.th,2300KøbenhavnS",1000000.0,57200.0,2100000,54.0,38888.0,2022-03-01,100%,Almindeligfrihandel,"Etagebolig-bygning,flerfamiliehusellerto-familiehus",1902.0,45.0,12.6104344,55.6552784,"TychoBrahesAllé1,2th,2300KøbenhavnS",TychoBrahesAllé,1,3.0,2,2022,3,1
183,415283,"Strandlodsvej25B,3.th,2300KøbenhavnS",2550000.0,390800.0,6900000,113.0,61061.0,2022-03-01,100%,Almindeligfrihandel,"Etagebolig-bygning,flerfamiliehusellerto-familiehus",2016.0,103.0,12.62507732,55.66576223,"Strandlodsvej25B,3tv,2300KøbenhavnS",Strandlodsvej,25,4.0,4,2022,3,1
184,126403,"Kongovej8,1.th,2300KøbenhavnS",1400000.0,257500.0,3495000,81.0,43148.0,2022-03-01,100%,Almindeligfrihandel,"Etagebolig-bygning,flerfamiliehusellerto-familiehus",1932.0,75.0,12.62365289,55.6476389,"Kongovej8,1th,2300KøbenhavnS",Kongovej,8,2.0,3,2022,3,1
185,102741,"Hollænderdybet30,5.mf,2300KøbenhavnS",2650000.0,235200.0,5750000,120.0,47916.0,2022-03-01,100%,Almindeligfrihandel,"Etagebolig-bygning,flerfamiliehusellerto-familiehus",2007.0,111.0,12.59529186,55.66408801,"Hollænderdybet30,5mf,2300KøbenhavnS",Hollænderdybet,30,6.0,4,2022,3,1
186,109724,"IslandsBrygge36A,6.3,2300KøbenhavnS",2750000.0,320600.0,5295000,80.0,66187.0,2022-03-01,100%,Almindeligfrihandel,"Etagebolig-bygning,flerfamiliehusellerto-familiehus",2012.0,73.0,12.56741573,55.65893424,"IslandsBrygge38B,5tv,2300KøbenhavnS",IslandsBrygge,36,7.0,2,2022,3,1
187,135991,"SundbyParkvej1,2.tv,2300KøbenhavnS",2450000.0,431600.0,6575000,112.0,58705.0,2022-03-01,100%,Almindeligfrihandel,"Etagebolig-bygning,flerfamiliehusellerto-familiehus",2007.0,99.0,12.62959629,55.66232513,"SundbyParkvej1,2tv,2300KøbenhavnS",SundbyParkvej,1,3.0,3,2022,3,1
188,129215,"Saltholmsvej9,2.th,2300KøbenhavnS",920000.0,90700.0,2000000,48.0,41666.0,2022-03-01,100%,Almindeligfrihandel,"Etagebolig-bygning,flerfamiliehusellerto-familiehus",1904.0,41.0,12.60925091,55.65931269,"Blegdamsvej26,4th,2200KøbenhavnN",Saltholmsvej,9,3.0,2,2022,3,1
189,134104,"Nordlandsgade6,3.tv,2300KøbenhavnS",1000000.0,65500.0,2925000,54.0,54166.0,2022-03-01,100%,Almindeligfrihandel,"Etagebolig-bygning,flerfamiliehusellerto-familiehus",1911.0,46.0,12.60215844,55.66461568,"NærumHovedgade104,2850Nærum",Nordlandsgade,6,4.0,2,2022,3,1
190,104083,"VedSønderport18,5.tv,2300KøbenhavnS",1200000.0,95900.0,3150000,62.0,50806.0,2022-03-01,100%,Almindeligfrihandel,"Etagebolig-bygning,flerfamiliehusellerto-familiehus",1932.0,55.0,12.60178809,55.66658419,"Gammeltoftsgade12A,5tv,1355KøbenhavnK",VedSønderport,18,6.0,2,2022,3,1
191,138814,"Hyacintgården1,3.th,2300KøbenhavnS",1000000.0,150900.0,2300000,66.0,34848.0,2022-02-15,100%,Almindeligfrihandel,"Etagebolig-bygning,flerfamiliehusellerto-familiehus",1968.0,63.0,12.61264516,55.64824972,"Hyacintgården1,3th,2300KøbenhavnS",Hyacintgården,1,4.0,2,2022,2,15
192,132319,"Amsterdamvej3,1.th,2300KøbenhavnS",960000.0,133600.0,2450000,58.0,42241.0,2022-02-15,100%,Almindeligfrihandel,"Etagebolig-bygning,flerfamiliehusellerto-familiehus",1929.0,51.0,12.61400515,55.64873026,"Amsterdamvej3,1th,2300KøbenhavnS",Amsterdamvej,3,2.0,2,2022,2,15
193,102739,"Hollænderdybet30,4.th,2300KøbenhavnS",2100000.0,182800.0,5150000,96.0,53645.0,2022-02-15,100%,Almindeligfrihandel,"Etagebolig-bygning,flerfamiliehusellerto-familiehus",2007.0,87.0,12.59529186,55.66408801,"Hollænderdybet30,4th,2300KøbenhavnS",Hollænderdybet,30,5.0,4,2022,2,15
194,101376,"AmagerBoulevard132,3.th,2300KøbenhavnS",1750000.0,142500.0,4900000,104.0,47115.0,2022-02-15,100%,Almindeligfrihandel,"Etagebolig-bygning,flerfamiliehusellerto-familiehus",1918.0,95.0,12.59903249,55.66534412,"AmagerBoulevard132,3th,2300KøbenhavnS",AmagerBoulevard,132,4.0,4,2022,2,15
195,132863,"Messinavej1,3.tv,2300KøbenhavnS",1850000.0,167000.0,4200000,110.0,38181.0,2022-02-15,100%,Almindeligfrihandel,"Etagebolig-bygning,flerfamiliehusellerto-familiehus",1932.0,102.0,12.62079604,55.66116257,"Korsørgade8,6tv,2100KøbenhavnØ",Messinavej,1,4.0,4,2022,2,15
196,131429,"Lynettevej7,2.tv,2300KøbenhavnS",960000.0,112600.0,2495000,58.0,43017.0,2022-02-15,100%,Almindeligfrihandel,"Etagebolig-bygning,flerfamiliehusellerto-familiehus",1935.0,50.0,12.6124873,55.65967856,"Lynettevej7,2tv,2300KøbenhavnS",Lynettevej,7,3.0,2,2022,2,15
197,136658,"Florensvej12,2.tv,2300KøbenhavnS",950000.0,137200.0,2470000,52.0,47500.0,2022-02-15,100%,Almindeligfrihandel,"Etagebolig-bygning,flerfamiliehusellerto-familiehus",1940.0,49.0,12.62104518,55.65795371,"H.C.AndersensBoul42,3th,1553KøbenhavnV",Florensvej,12,3.0,2,2022,2,15
198,133581,"Engvej176,1.th,2300KøbenhavnS",1000000.0,266900.0,2750000,59.0,46610.0,2022-02-15,100%,Almindeligfrihandel,"Etagebolig-bygning,flerfamiliehusellerto-familiehus",1963.0,54.0,12.63459183,55.64614882,"Engvej176,1th,2300KøbenhavnS",Engvej,176,2.0,2,2022,2,15
199,123874,"Højdevej7,st.tv,2300KøbenhavnS",950000.0,129400.0,2100000,56.0,37500.0,2022-02-15,100%,Almindeligfrihandel,"Etagebolig-bygning,flerfamiliehusellerto-familiehus",1904.0,49.0,12.61168029,55.65454977,"Højdevej7,sttv,2300KøbenhavnS",Højdevej,7,1.0,2,2022,2,15
200,109371,"C.F.MøllersAllé68,2.th,2300KøbenhavnS",2000000.0,416400.0,4300000,103.0,41747.0,2022-02-15,100%,Almindeligfrihandel,"Etagebolig-bygning,flerfamiliehusellerto-familiehus",2007.0,90.0,12.57776102,55.63457005,"C.F.MøllersAllé68,2th,2300KøbenhavnS",C.F.MøllersAllé,68,3.0,4,2022,2,15
201,143775,"Brigadevej8,3.th,2300KøbenhavnS",710000.0,80000.0,2200000,41.0,53658.0,2022-02-15,100%,Almindeligfrihandel,"Etagebolig-bygning,flerfamiliehusellerto-familiehus",1898.0,37.0,12.60097752,55.66279453,"Brigadevej8,3th,2300KøbenhavnS",Brigadevej,8,4.0,2,2022,2,15
202,139631,"RichardMortensensVej65,5.p1,2300KøbenhavnS",2100000.0,488400.0,4375000,106.0,41273.0,2022-02-15,100%,Almindeligfrihandel,"Etagebolig-bygning,flerfamiliehusellerto-familiehus",2010.0,94.0,12.57131576,55.61812802,"None,2300KøbenhavnS",RichardMortensensVej,65,6.0,3,2022,2,15
203,136091,"Elbagade77,4.tv,2300KøbenhavnS",940000.0,85700.0,2440000,53.0,46037.0,2022-02-15,100%,Almindeligfrihandel,"Etagebolig-bygning,flerfamiliehusellerto-familiehus",1935.0,47.0,12.61793509,55.65460243,"Elbagade77,4tv,2300KøbenhavnS",Elbagade,77,5.0,2,2022,2,15
204,111006,"Amagerfælledvej12A,5.th,2300KøbenhavnS",3600000.0,485200.0,8200000,163.0,50306.0,2022-02-15,100%,Almindeligfrihandel,"Etagebolig-bygning,flerfamiliehusellerto-familiehus",2018.0,150.0,12.59467951,55.66625538,"Weidekampsgade61,stth,2300KøbenhavnS",Amagerfælledvej,12,6.0,6,2022,2,15
205,133680,"Lemnosvej17,2.mf,2300KøbenhavnS",700000.0,83000.0,1800000,40.0,45000.0,2022-02-15,100%,Almindeligfrihandel,"Etagebolig-bygning,flerfamiliehusellerto-familiehus",1939.0,37.0,12.62217543,55.65323486,"Lemnosvej17,2mf,2300KøbenhavnS",Lemnosvej,17,3.0,1,2022,2,15
208,109324,"ØrestadsBoulevard63A,5.th,2300KøbenhavnS",1600000.0,301300.0,3625000,76.0,47697.0,2022-02-15,100%,Almindeligfrihandel,"Etagebolig-bygning,flerfamiliehusellerto-familiehus",2007.0,68.0,12.58153275,55.63285599,"ØrestadsBoulevard63A,5th,2300KøbenhavnS",ØrestadsBoulevard,63,6.0,3,2022,2,15
209,105470,"Norgesgade10,2.5,2300KøbenhavnS",910000.0,82400.0,2200000,53.0,41509.0,2022-02-15,100%,Almindeligfrihandel,"Etagebolig-bygning,flerfamiliehusellerto-familiehus",1963.0,44.0,12.59853292,55.66391855,"Glentevej17,3390Hundested",Norgesgade,10,3.0,1,2022,2,15
210,136413,"Amagerbrogade297,1.th,2300KøbenhavnS",960000.0,85300.0,2100000,58.0,36206.0,2022-02-15,100%,Almindeligfrihandel,"Etagebolig-bygning,flerfamiliehusellerto-familiehus",1939.0,52.0,12.61703995,55.64123134,"Amagerbrogade297,1th,2300KøbenhavnS",Amagerbrogade,297,2.0,2,2022,2,15
211,125497,"Amagerbrogade263B,1.th,2300KøbenhavnS",1600000.0,230800.0,3675000,94.0,39095.0,2022-02-15,100%,Almindeligfrihandel,"Etagebolig-bygning,flerfamiliehusellerto-familiehus",1938.0,89.0,12.6155371,55.64431219,,Amagerbrogade,263,2.0,4,2022,2,15
212,123829,"Lyneborggade3,4.tv,2300KøbenhavnS",1050000.0,207700.0,2925000,54.0,54166.0,2022-02-07,100%,Almindeligfrihandel,"Etagebolig-bygning,flerfamiliehusellerto-familiehus",1903.0,48.0,12.60964016,55.66539623,"Schacksgade6,stth,1365KøbenhavnK",Lyneborggade,3,5.0,2,2022,2,7
213,105043,"Amagerfælledvej11,5.tv,2300KøbenhavnS",1700000.0,140000.0,4995000,93.0,53709.0,2022-02-07,100%,Almindeligfrihandel,"Etagebolig-bygning,flerfamiliehusellerto-familiehus",1915.0,86.0,12.59552586,55.66730087,"Amagerfælledvej11,5tv,2300KøbenhavnS",Amagerfælledvej,11,6.0,4,2022,2,7
214,104155,"Hollænderdybet16,5.tv,2300KøbenhavnS",1000000.0,91300.0,3000000,59.0,50847.0,2022-02-03,100%,Almindeligfrihandel,"Etagebolig-bygning,flerfamiliehusellerto-familiehus",1917.0,52.0,12.59747969,55.66456298,"Hollænderdybet16,5tv,2300KøbenhavnS",Hollænderdybet,16,6.0,2,2022,2,3
217,132789,"Amagerbrogade125,2.tv,2300KøbenhavnS",1600000.0,103600.0,3810000,87.0,43793.0,2022-02-01,100%,Almindeligfrihandel,"Etagebolig-bygning,flerfamiliehusellerto-familiehus",1904.0,77.0,12.60882,55.65744759,"Amagerbrogade125,2tv,2300KøbenhavnS",Amagerbrogade,125,3.0,4,2022,2,1
218,103139,"VedLinden6,4.tv,2300KøbenhavnS",1950000.0,177400.0,5425000,110.0,49318.0,2022-02-01,100%,Almindeligfrihandel,"Etagebolig-bygning,flerfamiliehusellerto-familiehus",1913.0,101.0,12.59664421,55.66699363,"VedLinden6,4tv,2300KøbenhavnS",VedLinden,6,5.0,4,2022,2,1
219,136479,"Kastrupvej60,4.th,2300KøbenhavnS",1000000.0,97000.0,2540000,59.0,43050.0,2022-02-01,100%,Almindeligfrihandel,"Etagebolig-bygning,flerfamiliehusellerto-familiehus",1935.0,55.0,12.6177575,55.65490791,"Kastrupvej60,4th,2300KøbenhavnS",Kastrupvej,60,5.0,2,2022,2,1
220,130386,"Florensvej4,2.tv,2300KøbenhavnS",950000.0,137200.0,2275000,52.0,43750.0,2022-02-01,100%,Almindeligfrihandel,"Etagebolig-bygning,flerfamiliehusellerto-familiehus",1940.0,49.0,12.62184571,55.65803302,"Næsbyvej15,4,-1,2610Rødovre",Florensvej,4,3.0,2,2022,2,1
221,118350,"EdvardThomsensVej11,3.tv,2300KøbenhavnS",2300000.0,534300.0,4425000,115.0,38478.0,2022-02-01,100%,Almindeligfrihandel,"Etagebolig-bygning,flerfamiliehusellerto-familiehus",2007.0,110.0,12.57338719,55.63282044,"EdvardThomsensVej11,3tv,2300KøbenhavnS",EdvardThomsensVej,11,4.0,4,2022,2,1
222,131537,"Augustagade5,2.tv,2300KøbenhavnS",1000000.0,109300.0,2150000,62.0,34677.0,2022-02-01,100%,Almindeligfrihandel,"Etagebolig-bygning,flerfamiliehusellerto-familiehus",1929.0,54.0,12.61054716,55.65589975,"Øresundsvej156,3mf,2300KøbenhavnS",Augustagade,5,3.0,2,2022,2,1
223,137459,"Englandsvej10,1.tv,2300KøbenhavnS",1450000.0,163400.0,4035000,93.0,43387.0,2022-02-01,100%,Almindeligfrihandel,"Etagebolig-bygning,flerfamiliehusellerto-familiehus",1931.0,85.0,12.60613604,55.65763269,"NordreFasanvej128,sttv,2000Frederiksberg",Englandsvej,10,2.0,4,2022,2,1
224,130344,"Sorrentovej14,1.tv,2300KøbenhavnS",950000.0,137200.0,2330000,52.0,44807.0,2022-02-01,100%,Almindeligfrihandel,"Etagebolig-bygning,flerfamiliehusellerto-familiehus",1940.0,49.0,12.62221773,55.65821176,"Sorrentovej14,1tv,2300KøbenhavnS",Sorrentovej,14,2.0,2,2022,2,1
225,112358,"IslandsBrygge38D,8.th,2300KøbenhavnS",3100000.0,499400.0,8850000,118.0,75000.0,2022-02-01,100%,Almindeligfrihandel,"Etagebolig-bygning,flerfamiliehusellerto-familiehus",2017.0,104.0,12.5666493,55.65784111,"IslandsBrygge38D,8th,2300KøbenhavnS",IslandsBrygge,38,9.0,4,2022,2,1
226,123411,"Backersvej6,st.tv,2300KøbenhavnS",1300000.0,257800.0,3595000,79.0,45506.0,2022-02-01,100%,Almindeligfrihandel,"Etagebolig-bygning,flerfamiliehusellerto-familiehus",1914.0,70.0,12.61799263,55.66047527,"Elbagade55,3tv,2300KøbenhavnS",Backersvej,6,1.0,3,2022,2,1
227,108905,"ØrestadsBoulevard61F,3.th,2300KøbenhavnS",1850000.0,369400.0,4000000,100.0,40000.0,2022-02-01,100%,Almindeligfrihandel,"Etagebolig-bygning,flerfamiliehusellerto-familiehus",2007.0,91.0,12.58212756,55.63338864,"ØrestadsBoulevard61F,3th,2300KøbenhavnS",ØrestadsBoulevard,61,4.0,4,2022,2,1
228,119723,"EdvardThomsensVej5D,6.4,2300KøbenhavnS",1450000.0,271000.0,3200000,73.0,43835.0,2022-02-01,100%,Almindeligfrihandel,"Etagebolig-bygning,flerfamiliehusellerto-familiehus",2007.0,64.0,12.57322387,55.63255788,"TeglholmensØstkaj39,3tv,2450KøbenhavnSV",EdvardThomsensVej,5,7.0,2,2022,2,1
229,103232,"Svinget5,3.tv,2300KøbenhavnS",2300000.0,229200.0,6395000,131.0,48816.0,2022-02-01,100%,Almindeligfrihandel,"Etagebolig-bygning,flerfamiliehusellerto-familiehus",1914.0,123.0,12.59678783,55.66580833,"Svinget5,3tv,2300KøbenhavnS",Svinget,5,4.0,5,2022,2,1
230,138811,"Hyacintgården15,3.3,2300KøbenhavnS",620000.0,82200.0,1595000,38.0,41973.0,2022-02-01,100%,Almindeligfrihandel,"Etagebolig-bygning,flerfamiliehusellerto-familiehus",1968.0,35.0,12.61198563,55.649101,"Hyacintgården15,3,-3,2300KøbenhavnS",Hyacintgården,15,4.0,1,2022,2,1
232,142888,"GimlesAllé2B,2.tv,2300KøbenhavnS",1000000.0,144300.0,2495000,66.0,37803.0,2022-02-01,100%,Almindeligfrihandel,"Etagebolig-bygning,flerfamiliehusellerto-familiehus",1930.0,59.0,12.61125622,55.65100451,"GimlesAllé2B,3tv,2300KøbenhavnS",GimlesAllé,2,3.0,2,2022,2,1
233,101388,"UnderElmene18,4.tv,2300KøbenhavnS",1000000.0,94100.0,2799000,59.0,47440.0,2022-02-01,100%,Almindeligfrihandel,"Etagebolig-bygning,flerfamiliehusellerto-familiehus",1918.0,52.0,12.59880452,55.66529218,"GrønløkkeAllé20,8310TranbjergJ",UnderElmene,18,5.0,2,2022,2,1
234,101318,"Hollænderdybet4,4.th,2300KøbenhavnS",1000000.0,94100.0,2850000,58.0,49137.0,2022-02-01,100%,Almindeligfrihandel,"Etagebolig-bygning,flerfamiliehusellerto-familiehus",1918.0,50.0,12.59918115,55.66495373,"Hollænderdybet4,4th,2300KøbenhavnS",Hollænderdybet,4,5.0,2,2022,2,1
235,122926,"TychoBrahesAllé21,st.tv,2300KøbenhavnS",790000.0,62000.0,2050000,48.0,42708.0,2022-02-01,100%,Almindeligfrihandel,"Etagebolig-bygning,flerfamiliehusellerto-familiehus",1903.0,42.0,12.61210322,55.65562336,"Stokhusgade6,st,1317KøbenhavnK",TychoBrahesAllé,21,1.0,2,2022,2,1
236,132548,"Jansvej2,2.4,2300KøbenhavnS",760000.0,105200.0,1995000,44.0,45340.0,2022-02-01,100%,Almindeligfrihandel,"Etagebolig-bygning,flerfamiliehusellerto-familiehus",1939.0,42.0,12.61662735,55.6469108,"Rådvadsvej18,2tv,2400KøbenhavnNV",Jansvej,2,3.0,2,2022,2,1
237,110663,"RuedLanggaardsVej25,4.mf,2300KøbenhavnS",1550000.0,285000.0,3895000,76.0,51250.0,2022-02-01,100%,Almindeligfrihandel,"Etagebolig-bygning,flerfamiliehusellerto-familiehus",2005.0,68.0,12.58863944,55.65971946,"RuedLanggaardsVej25,4mf,2300KøbenhavnS",RuedLanggaardsVej,25,5.0,2,2022,2,1
238,142833,"Gyldenlakvej33,3.tv,2300KøbenhavnS",910000.0,108400.0,2050000,57.0,35964.0,2022-02-01,100%,Almindeligfrihandel,"Etagebolig-bygning,flerfamiliehusellerto-familiehus",1938.0,51.0,12.61301039,55.64485303,"Kingstonvej7,2300KøbenhavnS",Gyldenlakvej,33,4.0,2,2022,2,1
239,134466,"ØresundParkvej11,3.th,2300KøbenhavnS",2000000.0,281200.0,5500000,90.0,61111.0,2022-02-01,100%,Almindeligfrihandel,"Etagebolig-bygning,flerfamiliehusellerto-familiehus",2005.0,80.0,12.62961339,55.66380228,"ØresundParkvej11,3th,2300KøbenhavnS",ØresundParkvej,11,4.0,3,2022,2,1
240,112499,"IslandsBrygge77C,st.,2300KøbenhavnS",2800000.0,425500.0,5925000,117.0,50641.0,2022-02-01,100%,Almindeligfrihandel,"Etagebolig-bygning,flerfamiliehusellerto-familiehus",2008.0,101.0,12.56810613,55.65902618,"IslandsBrygge77C,st,2300KøbenhavnS",IslandsBrygge,77,1.0,4,2022,2,1
242,132268,"Øresundsvej46,3.th,2300KøbenhavnS",1100000.0,98500.0,2300000,58.0,39655.0,2022-02-01,100%,Almindeligfrihandel,"Etagebolig-bygning,flerfamiliehusellerto-familiehus",1906.0,49.0,12.61332775,55.66025436,"Vesterbrogade63,2th,1620KøbenhavnV",Øresundsvej,46,4.0,2,2022,2,1
243,133663,"Serbiensgade2,1.th,2300KøbenhavnS",960000.0,60700.0,2700000,57.0,47368.0,2022-02-01,100%,Almindeligfrihandel,"Etagebolig-bygning,flerfamiliehusellerto-familiehus",1916.0,49.0,12.61366868,55.66440021,"Serbiensgade2,1th,2300KøbenhavnS",Serbiensgade,2,2.0,2,2022,2,1
246,106805,"Vermlandsgade36,4.th,2300KøbenhavnS",3150000.0,459200.0,5350000,107.0,50000.0,2022-02-01,100%,Almindeligfrihandel,"Etagebolig-bygning,flerfamiliehusellerto-familiehus",2013.0,96.0,12.60196927,55.66835872,"Vermlandsgade36,4th,2300KøbenhavnS",Vermlandsgade,36,5.0,3,2022,2,1
247,122895,"TychoBrahesAllé13,4.th,2300KøbenhavnS",930000.0,60200.0,2260000,50.0,45200.0,2022-02-01,100%,Almindeligfrihandel,"Etagebolig-bygning,flerfamiliehusellerto-familiehus",1902.0,42.0,12.6114603,55.65549321,"TychoBrahesAllé13,4th,2300KøbenhavnS",TychoBrahesAllé,13,5.0,2,2022,2,1
248,143796,"Brigadevej20A,3.tv,2300KøbenhavnS",670000.0,66300.0,1975000,40.0,49375.0,2022-02-01,100%,Almindeligfrihandel,"Etagebolig-bygning,flerfamiliehusellerto-familiehus",1924.0,33.0,12.5999654,55.66277435,"Brigadevej20A,3tv,2300KøbenhavnS",Brigadevej,20,4.0,2,2022,2,1
249,135113,"Sorrentovej12,2.mf,2300KøbenhavnS",520000.0,54200.0,1360000,28.0,48571.0,2022-02-01,100%,Almindeligfrihandel,"Etagebolig-bygning,flerfamiliehusellerto-familiehus",1935.0,25.0,12.62173504,55.65832241,"Borgevej43B,2800KongensLyngby",Sorrentovej,12,3.0,1,2022,2,1
250,104586,"VedAmagerport8,st.tv,2300KøbenhavnS",1100000.0,121800.0,3140000,69.0,45507.0,2022-02-01,100%,Almindeligfrihandel,"Etagebolig-bygning,flerfamiliehusellerto-familiehus",1915.0,61.0,12.59613095,55.66768793,"Toftegærdet11C,2800KongensLyngby",VedAmagerport,8,1.0,2,2022,2,1
251,134287,"Bremensgade27,2.mf,2300KøbenhavnS",940000.0,103400.0,2710000,56.0,48392.0,2022-02-01,100%,Almindeligfrihandel,"Etagebolig-bygning,flerfamiliehusellerto-familiehus",1939.0,52.0,12.6176427,55.66595946,"Bremensgade27,2mf,2300KøbenhavnS",Bremensgade,27,3.0,2,2022,2,1
252,132500,"Gerbrandsvej20,2.4,2300KøbenhavnS",760000.0,101200.0,1850000,44.0,42045.0,2022-02-01,100%,Almindeligfrihandel,"Etagebolig-bygning,flerfamiliehusellerto-familiehus",1938.0,42.0,12.61762072,55.64707329,"Gerbrandsvej20,2,-4,2300KøbenhavnS",Gerbrandsvej,20,3.0,2,2022,2,1
253,124595,"Lombardigade15,st.th,2300KøbenhavnS",1250000.0,126700.0,3135000,80.0,39187.0,2022-02-01,100%,Almindeligfrihandel,"Etagebolig-bygning,flerfamiliehusellerto-familiehus",1904.0,72.0,12.61304328,55.65423948,"Bremensgade45,4th,2300KøbenhavnS",Lombardigade,15,1.0,3,2022,2,1
254,140730,"Birketinget16,3.2,2300KøbenhavnS",1700000.0,349700.0,3872500,109.0,17763.0,2022-02-01,100%,Almindeligfrihandel,"Etagebolig-bygning,flerfamiliehusellerto-familiehus",1973.0,63.0,12.59702368,55.65676483,"Birketinget16,3,-2,2300KøbenhavnS",Birketinget,16,4.0,3,2022,2,1
256,140530,"RobertJacobsensVej66,6.4,2300KøbenhavnS",1200000.0,249400.0,2870000,60.0,47833.0,2022-02-01,100%,Almindeligfrihandel,"Etagebolig-bygning,flerfamiliehusellerto-familiehus",2010.0,48.0,12.57223527,55.61811425,"ConstantinHansensG43,sttv,1799KøbenhavnV",RobertJacobsensVej,66,7.0,2,2022,2,1
257,136672,"Florensvej11,st.th,2300KøbenhavnS",1050000.0,177900.0,2700000,66.0,40909.0,2022-02-01,100%,Almindeligfrihandel,"Etagebolig-bygning,flerfamiliehusellerto-familiehus",1940.0,63.0,12.62142953,55.65762242,"Florensvej11,stth,2300KøbenhavnS",Florensvej,11,1.0,3,2022,2,1
258,103587,"Snorresgade2,st.tv,2300KøbenhavnS",1900000.0,125800.0,4900000,87.0,56321.0,2022-02-01,100%,Almindeligfrihandel,"Etagebolig-bygning,flerfamiliehusellerto-familiehus",1913.0,80.0,12.57607611,55.66584496,"Snorresgade2,sttv,2300KøbenhavnS",Snorresgade,2,1.0,4,2022,2,1
259,135788,"SundbyParkvej11,2.th,2300KøbenhavnS",1950000.0,336900.0,5095000,90.0,56611.0,2022-02-01,100%,Almindeligfrihandel,"Etagebolig-bygning,flerfamiliehusellerto-familiehus",2007.0,77.0,12.62911068,55.66272553,"SundbyParkvej11,2th,2300KøbenhavnS",SundbyParkvej,11,3.0,3,2022,2,1
260,424418,"Strandlodsvej25K,3.th,2300KøbenhavnS",2700000.0,389400.0,6850000,118.0,58050.0,2022-02-01,100%,Almindeligfrihandel,"Etagebolig-bygning,flerfamiliehusellerto-familiehus",2016.0,108.0,12.62429976,55.66564243,"Strandlodsvej25K,3th,2300KøbenhavnS",Strandlodsvej,25,4.0,4,2022,2,1
261,140226,"Østerdalsgade3B,st.tv,2300KøbenhavnS",900000.0,116900.0,2650000,64.0,41406.0,2022-02-01,100%,Almindeligfrihandel,"Etagebolig-bygning,flerfamiliehusellerto-familiehus",1936.0,59.0,12.60272073,55.65510918,"Storkevej38,3650Ølstykke",Østerdalsgade,3,1.0,2,2022,2,1
263,140670,"Birketinget12,2.2,2300KøbenhavnS",1050000.0,229100.0,2525000,70.0,36071.0,2022-02-01,100%,Almindeligfrihandel,"Etagebolig-bygning,flerfamiliehusellerto-familiehus",1973.0,65.0,12.59689377,55.65642731,"Birketinget12,2,-2,2300KøbenhavnS",Birketinget,12,3.0,2,2022,2,1
264,140537,"RobertJacobsensVej66,8.p4,2300KøbenhavnS",2700000.0,633900.0,5925000,134.0,44216.0,2022-02-01,100%,Almindeligfrihandel,"Etagebolig-bygning,flerfamiliehusellerto-familiehus",2010.0,122.0,12.57223527,55.61811425,"None,2300KøbenhavnS",RobertJacobsensVej,66,9.0,4,2022,2,1
265,409636,"Hveensvej4,st.,2300KøbenhavnS",1600000.0,172500.0,4070000,98.0,41530.0,2022-02-01,100%,Almindeligfrihandel,"Etagebolig-bygning,flerfamiliehusellerto-familiehus",2012.0,78.0,12.60984969,55.6562271,"Hveensvej4,st,2300KøbenhavnS",Hveensvej,4,1.0,3,2022,2,1
266,131588,"Caprivej10,3.tv,2300KøbenhavnS",900000.0,75900.0,2370000,52.0,45576.0,2022-02-01,100%,Almindeligfrihandel,"Etagebolig-bygning,flerfamiliehusellerto-familiehus",1937.0,48.0,12.62200283,55.66072165,"Caprivej10,3tv,2300KøbenhavnS",Caprivej,10,4.0,2,2022,2,1
267,124227,"Lombardigade5,3.th,2300KøbenhavnS",1550000.0,136400.0,4375000,89.0,49157.0,2022-02-01,100%,Almindeligfrihandel,"Etagebolig-bygning,flerfamiliehusellerto-familiehus",1903.0,82.0,12.61181396,55.65399328,"Lombardigade5,3th,2300KøbenhavnS",Lombardigade,5,4.0,4,2022,2,1
268,136880,"Øresundsvej132G,st.2,2300KøbenhavnS",1150000.0,215000.0,3400000,76.0,44736.0,2022-02-01,100%,Almindeligfrihandel,"Etagebolig-bygning,flerfamiliehusellerto-familiehus",1934.0,69.0,12.62615177,55.66054684,"GlKoldingLandevej67A,7100Vejle",Øresundsvej,132,1.0,2,2022,2,1
269,108832,"C.F.MøllersAllé2C,6.th,2300KøbenhavnS",1950000.0,204600.0,4200000,94.0,44680.0,2022-02-01,100%,Almindeligfrihandel,"Etagebolig-bygning,flerfamiliehusellerto-familiehus",2012.0,83.0,12.57524688,55.63542859,"Fælleddiget15,2300KøbenhavnS",C.F.MøllersAllé,2,7.0,3,2022,2,1
270,126428,"Lyneborggade6,st.tv,2300KøbenhavnS",680000.0,37200.0,1635000,36.0,45416.0,2022-02-01,100%,Almindeligfrihandel,"Etagebolig-bygning,flerfamiliehusellerto-familiehus",1902.0,30.0,12.60932449,55.66520923,"Lyneborggade6,sttv,2300KøbenhavnS",Lyneborggade,6,1.0,1,2022,2,1
271,139777,"PederLykkesVej54,st.4,2300KøbenhavnS",870000.0,132300.0,3950000,97.0,40721.0,2022-02-01,100%,Almindeligfrihandel,"Etagebolig-bygning,flerfamiliehusellerto-familiehus",1935.0,153.0,12.60251615,55.65417104,"Rosenhaven218,2980Kokkedal",PederLykkesVej,54,1.0,4,2022,2,1
272,134724,"Sorrentovej4,st.tv,2300KøbenhavnS",850000.0,106200.0,2050000,51.0,40196.0,2022-02-01,100%,Almindeligfrihandel,"Etagebolig-bygning,flerfamiliehusellerto-familiehus",1935.0,48.0,12.62079241,55.6585694,"Solsortevej3,2970Hørsholm",Sorrentovej,4,1.0,2,2022,2,1
273,118371,"EdvardThomsensVej15,4.tv,2300KøbenhavnS",2050000.0,458700.0,4175000,100.0,41750.0,2022-02-01,100%,Almindeligfrihandel,"Etagebolig-bygning,flerfamiliehusellerto-familiehus",2007.0,95.0,12.5734997,55.63313421,"EdvardThomsensVej15,4tv,2300KøbenhavnS",EdvardThomsensVej,15,5.0,3,2022,2,1
274,132117,"AmagerStrandvej122B,3.mf,2300KøbenhavnS",2200000.0,416000.0,7315000,130.0,56269.0,2022-02-01,100%,Almindeligfrihandel,"Etagebolig-bygning,flerfamiliehusellerto-familiehus",1962.0,122.0,12.63300815,55.65972752,"AmagerStrandvej122B,3mf,2300KøbenhavnS",AmagerStrandvej,122,4.0,3,2022,2,1
275,102314,"Reykjaviksgade5,1.tv,2300KøbenhavnS",2400000.0,161300.0,5750000,105.0,54761.0,2022-02-01,100%,Almindeligfrihandel,"Etagebolig-bygning,flerfamiliehusellerto-familiehus",1907.0,96.0,12.57878328,55.66754473,"Rytteragervej6,9800Hjørring",Reykjaviksgade,5,2.0,4,2022,2,1
276,102887,"Weidekampsgade39,3.tv,2300KøbenhavnS",2300000.0,447800.0,4710000,84.0,56071.0,2022-02-01,100%,Almindeligfrihandel,"Etagebolig-bygning,flerfamiliehusellerto-familiehus",2007.0,73.0,12.58236893,55.66691425,"Weidekampsgade39,3tv,2300KøbenhavnS",Weidekampsgade,39,4.0,3,2022,2,1
277,130534,"Amagerbrogade175,4.411,2300KøbenhavnS",940000.0,60000.0,1650000,52.0,31730.0,2022-02-01,100%,Almindeligfrihandel,"Etagebolig-bygning,flerfamiliehusellerto-familiehus",1969.0,43.0,12.61168408,55.65293965,"Parkvej4,2791Dragør",Amagerbrogade,175,5.0,1,2022,2,1
279,132744,"TychoBrahesAllé10,5.tv,2300KøbenhavnS",780000.0,80000.0,4100000,85.0,48235.0,2022-02-01,100%,Almindeligfrihandel,"Etagebolig-bygning,flerfamiliehusellerto-familiehus",1904.0,78.0,12.61135726,55.65523458,"TychoBrahesAllé10,5tv,2300KøbenhavnS",TychoBrahesAllé,10,6.0,3,2022,2,1
280,126968,"Reberbanegade8,st.th,2300KøbenhavnS",960000.0,93500.0,2425000,57.0,42543.0,2022-02-01,100%,Almindeligfrihandel,"Etagebolig-bygning,flerfamiliehusellerto-familiehus",1900.0,50.0,12.60319334,55.66293921,"Reberbanegade8,stth,2300KøbenhavnS",Reberbanegade,8,1.0,2,2022,2,1
281,128717,"Ålandsgade11,4.tv,2300KøbenhavnS",1400000.0,71300.0,4550000,75.0,60666.0,2022-02-01,100%,Almindeligfrihandel,"Etagebolig-bygning,flerfamiliehusellerto-familiehus",1901.0,45.0,12.60515015,55.66417552,"Ålandsgade11,4tv,2300KøbenhavnS",Ålandsgade,11,5.0,3,2022,2,1
282,132001,"Palermovej1,2.tv,2300KøbenhavnS",880000.0,72700.0,2425000,51.0,47549.0,2022-02-01,100%,Almindeligfrihandel,"Etagebolig-bygning,flerfamiliehusellerto-familiehus",1937.0,47.0,12.62133272,55.6604226,"Palermovej1,2tv,2300KøbenhavnS",Palermovej,1,3.0,2,2022,2,1
283,105943,"Uplandsgade28,1.th,2300KøbenhavnS",1750000.0,154900.0,4695000,92.0,51032.0,2022-02-01,100%,Almindeligfrihandel,"Etagebolig-bygning,flerfamiliehusellerto-familiehus",1924.0,83.0,12.60239752,55.6674331,"Uplandsgade28,1th,2300KøbenhavnS",Uplandsgade,28,2.0,4,2022,2,1
284,101444,"H.C.HansensGade7,3.tv,2300KøbenhavnS",3250000.0,620800.0,6950000,120.0,57916.0,2022-02-01,100%,Almindeligfrihandel,"Etagebolig-bygning,flerfamiliehusellerto-familiehus",2007.0,110.0,12.57320273,55.66323246,"H.C.HansensGade7,3tv,2300KøbenhavnS",H.C.HansensGade,7,4.0,4,2022,2,1
285,133152,"Lyneborggade25,st.th,2300KøbenhavnS",1850000.0,264000.0,4150000,91.0,45604.0,2022-02-01,100%,Almindeligfrihandel,"Etagebolig-bygning,flerfamiliehusellerto-familiehus",2006.0,81.0,12.6108942,55.66386206,"Lyneborggade25,stth,2300KøbenhavnS",Lyneborggade,25,1.0,3,2022,2,1
286,113287,"IslandsBrygge106,1.tv,2300KøbenhavnS",3350000.0,554600.0,10500000,128.0,82031.0,2022-02-01,100%,Almindeligfrihandel,"Etagebolig-bygning,flerfamiliehusellerto-familiehus",2018.0,116.0,12.56420811,55.65563284,"IslandsBrygge106,1tv,2300KøbenhavnS",IslandsBrygge,106,2.0,4,2022,2,1
287,135441,"Grækenlandsvej39,3.th,2300KøbenhavnS",1100000.0,111400.0,2695000,65.0,41461.0,2022-02-01,100%,Almindeligfrihandel,"Etagebolig-bygning,flerfamiliehusellerto-familiehus",1934.0,59.0,12.61638686,55.65198002,"Grækenlandsvej39,3th,2300KøbenhavnS",Grækenlandsvej,39,4.0,3,2022,2,1
288,422716,"RobertJacobsensVej5A,9.th,2300KøbenhavnS",2500000.0,461000.0,5495000,115.0,47782.0,2022-02-01,100%,Almindeligfrihandel,"Etagebolig-bygning,flerfamiliehusellerto-familiehus",2017.0,103.0,12.57554981,55.62357291,"RobertJacobsensVej5A,9th,2300KøbenhavnS",RobertJacobsensVej,5,10.0,3,2022,2,1
289,140087,"RichardMortensensVej75,6.4,2300KøbenhavnS",2300000.0,504000.0,4375000,109.0,40137.0,2022-02-01,100%,Almindeligfrihandel,"Etagebolig-bygning,flerfamiliehusellerto-familiehus",2010.0,97.0,12.57123192,55.61732731,"RichardMortensensV75,6,-4,2300KøbenhavnS",RichardMortensensVej,75,7.0,4,2022,2,1
290,114764,"C.F.MøllersAllé18,7.th,2300KøbenhavnS",1950000.0,383100.0,4400000,99.0,44444.0,2022-02-01,100%,Almindeligfrihandel,"Etagebolig-bygning,flerfamiliehusellerto-familiehus",2007.0,84.0,12.57425173,55.63513661,"C.F.MøllersAllé18,7th,2300KøbenhavnS",C.F.MøllersAllé,18,8.0,3,2022,2,1
291,135555,"Frankrigshusene22,2.tv,2300KøbenhavnS",1250000.0,131300.0,3465000,70.0,49500.0,2022-02-01,100%,Almindeligfrihandel,"Etagebolig-bygning,flerfamiliehusellerto-familiehus",1936.0,65.0,12.60721084,55.6628126,"Frankrigshusene22,2tv,2300KøbenhavnS",Frankrigshusene,22,3.0,3,2022,2,1
292,136683,"Florensvej14,1.tv,2300KøbenhavnS",1150000.0,177900.0,2995000,66.0,45378.0,2022-02-01,100%,Almindeligfrihandel,"Etagebolig-bygning,flerfamiliehusellerto-familiehus",1940.0,63.0,12.62080232,55.65777313,"Florensvej14,1tv,2300KøbenhavnS",Florensvej,14,2.0,3,2022,2,1
293,135056,"Øresundsvej47B,1.tv,2300KøbenhavnS",1050000.0,171500.0,2315000,57.0,40614.0,2022-02-01,100%,Almindeligfrihandel,"Etagebolig-bygning,flerfamiliehusellerto-familiehus",1914.0,50.0,12.61327956,55.66048723,"C.F.MøllersAllé56,2tv,2300KøbenhavnS",Øresundsvej,47,2.0,2,2022,2,1
294,132769,"TychoBrahesAllé8,2.tv,2300KøbenhavnS",1000000.0,77800.0,2325000,56.0,41517.0,2022-02-01,100%,Almindeligfrihandel,"Etagebolig-bygning,flerfamiliehusellerto-familiehus",1904.0,49.0,12.61115147,55.65519155,"TychoBrahesAllé8,2tv,2300KøbenhavnS",TychoBrahesAllé,8,3.0,2,2022,2,1
295,136533,"Tønnesvej18,3.,2300KøbenhavnS",1100000.0,187100.0,2025000,64.0,31640.0,2022-02-01,100%,Almindeligfrihandel,"Etagebolig-bygning,flerfamiliehusellerto-familiehus",1935.0,58.0,12.6186704,55.64512431,"Tønnesvej18,3,2300KøbenhavnS",Tønnesvej,18,4.0,2,2022,2,1
296,108422,"C.F.MøllersAllé30,9.tv,2300KøbenhavnS",1900000.0,366900.0,4385000,93.0,47150.0,2022-02-01,100%,Almindeligfrihandel,"Etagebolig-bygning,flerfamiliehusellerto-familiehus",2007.0,82.0,12.5760612,55.63472226,"C.F.MøllersAllé30,9tv,2300KøbenhavnS",C.F.MøllersAllé,30,10.0,2,2022,2,1
297,108931,"ØrestadsBoulevard63D,st.tv,2300KøbenhavnS",1100000.0,216400.0,2675000,59.0,45338.0,2022-02-01,100%,Almindeligfrihandel,"Etagebolig-bygning,flerfamiliehusellerto-familiehus",2007.0,49.0,12.58208943,55.63278847,"Krebsevej81,2650Hvidovre",ØrestadsBoulevard,63,1.0,2,2022,2,1
298,102337,"IslandsBrygge30B,12.3,2300KøbenhavnS",2450000.0,339400.0,5350000,80.0,66875.0,2022-02-01,100%,Almindeligfrihandel,"Etagebolig-bygning,flerfamiliehusellerto-familiehus",1961.0,67.0,12.56942963,55.66183508,"Engbovej86,2610Rødovre",IslandsBrygge,30,13.0,2,2022,2,1
299,135841,"SundbyParkvej16,1.th,2300KøbenhavnS",1950000.0,336900.0,5295000,90.0,58833.0,2022-02-01,100%,Almindeligfrihandel,"Etagebolig-bygning,flerfamiliehusellerto-familiehus",2007.0,77.0,12.63055864,55.66281556,"SundbyParkvej16,1th,2300KøbenhavnS",SundbyParkvej,16,2.0,3,2022,2,1
300,104571,"Amagerbrogade17,1.tv,2300KøbenhavnS",5050000.0,1125200.0,10300000,224.0,45982.0,2022-02-01,100%,Almindeligfrihandel,"Etagebolig-bygning,flerfamiliehusellerto-familiehus",1918.0,207.0,12.5981751,55.66707999,"Amagerbrogade17,1tv,2300KøbenhavnS",Amagerbrogade,17,2.0,6,2022,2,1
301,113356,"ØrestadsBoulevard59A,4.406,2300KøbenhavnS",1950000.0,463800.0,3975000,109.0,36467.0,2022-02-01,100%,Almindeligfrihandel,"Etagebolig-bygning,flerfamiliehusellerto-familiehus",2005.0,96.0,12.58191418,55.63399005,"ØrestadsBoulevard59A,4,-406,2300KøbenhavnS",ØrestadsBoulevard,59,5.0,1,2022,2,1
302,134238,"Hessensgade23,1.tv,2300KøbenhavnS",960000.0,154700.0,2666000,60.0,44433.0,2022-02-01,100%,Almindeligfrihandel,"Etagebolig-bygning,flerfamiliehusellerto-familiehus",1965.0,53.0,12.61604395,55.66489702,"Hessensgade23,1tv,2300KøbenhavnS",Hessensgade,23,2.0,2,2022,2,1
303,118828,"EdvardThomsensVej69,10.1,2300KøbenhavnS",2150000.0,455800.0,4125000,108.0,38194.0,2022-02-01,100%,Almindeligfrihandel,"Etagebolig-bygning,flerfamiliehusellerto-familiehus",2007.0,83.0,12.57810851,55.63263825,"EdvardThomsensVej69,10,-1,2300KøbenhavnS",EdvardThomsensVej,69,11.0,3,2022,2,1
304,140681,"Birketinget12,4.2,2300KøbenhavnS",1100000.0,229100.0,2765000,70.0,39500.0,2022-02-01,100%,Almindeligfrihandel,"Etagebolig-bygning,flerfamiliehusellerto-familiehus",1973.0,65.0,12.59689377,55.65642731,"MosedeBygade10B,2670Greve",Birketinget,12,5.0,2,2022,2,1
305,113859,"EdvardThomsensVej81,2.2,2300KøbenhavnS",1600000.0,332500.0,3295000,83.0,39698.0,2022-02-01,100%,Almindeligfrihandel,"Etagebolig-bygning,flerfamiliehusellerto-familiehus",2006.0,76.0,12.57880004,55.63257148,"EdvardThomsensVej81,2,-2,2300KøbenhavnS",EdvardThomsensVej,81,3.0,2,2022,2,1
306,109379,"C.F.MøllersAllé68,6.tv,2300KøbenhavnS",1950000.0,393300.0,4600000,98.0,46938.0,2022-02-01,100%,Almindeligfrihandel,"Etagebolig-bygning,flerfamiliehusellerto-familiehus",2007.0,85.0,12.57776102,55.63457005,"C.F.MøllersAllé68,6tv,2300KøbenhavnS",C.F.MøllersAllé,68,7.0,4,2022,2,1
307,422676,"RobertJacobsensVej1B,4.tv,2300KøbenhavnS",2750000.0,501200.0,5250000,125.0,42000.0,2022-02-01,100%,Almindeligfrihandel,"Etagebolig-bygning,flerfamiliehusellerto-familiehus",2017.0,112.0,12.57564119,55.62374217,"RobertJacobsensVej1B,4tv,2300KøbenhavnS",RobertJacobsensVej,1,5.0,4,2022,2,1
308,122959,"TychoBrahesAllé27,3.th,2300KøbenhavnS",880000.0,58000.0,1925000,49.0,39285.0,2022-02-01,100%,Almindeligfrihandel,"Etagebolig-bygning,flerfamiliehusellerto-familiehus",1903.0,42.0,12.61258618,55.65572449,"TychoBrahesAllé27,3th,2300KøbenhavnS",TychoBrahesAllé,27,4.0,2,2022,2,1
309,140134,"RobertJacobsensVej66,5.3,2300KøbenhavnS",1750000.0,441700.0,3800000,97.0,39175.0,2022-02-01,100%,Almindeligfrihandel,"Etagebolig-bygning,flerfamiliehusellerto-familiehus",2010.0,85.0,12.57223527,55.61811425,"RobertJacobsensVej66,5,-3,2300KøbenhavnS",RobertJacobsensVej,66,6.0,3,2022,2,1
310,415279,"Strandlodsvej25E,5.th,2300KøbenhavnS",2700000.0,402100.0,7510000,116.0,64741.0,2022-02-01,100%,Almindeligfrihandel,"Etagebolig-bygning,flerfamiliehusellerto-familiehus",2016.0,106.0,12.6249935,55.66601163,"Strandlodsvej25E,5th,2300KøbenhavnS",Strandlodsvej,25,6.0,5,2022,2,1
312,140201,"Englandsvej38B,4.tv,2300KøbenhavnS",960000.0,82700.0,2350000,61.0,38524.0,2022-02-01,100%,Almindeligfrihandel,"Etagebolig-bygning,flerfamiliehusellerto-familiehus",1936.0,55.0,12.60320381,55.654771,"Englandsvej34B,4tv,2300KøbenhavnS",Englandsvej,38,5.0,2,2022,2,1
313,133429,"Ålandsgade20,4.th,2300KøbenhavnS",1000000.0,161000.0,2825000,54.0,52314.0,2022-02-01,100%,Almindeligfrihandel,"Etagebolig-bygning,flerfamiliehusellerto-familiehus",1940.0,50.0,12.60643821,55.66256882,"Ålandsgade20,4th,2300KøbenhavnS",Ålandsgade,20,5.0,2,2022,2,1
314,123884,"Højdevej7,4.th,2300KøbenhavnS",1100000.0,134900.0,935000,58.0,16120.0,2022-02-01,100%,Almindeligfrihandel,"Etagebolig-bygning,flerfamiliehusellerto-familiehus",1904.0,51.0,12.61168029,55.65454977,"Højdevej7,4th,2300KøbenhavnS",Højdevej,7,5.0,2,2022,2,1
315,139177,"RobertJacobsensVej82,3.4,2300KøbenhavnS",2050000.0,493600.0,6225000,107.0,58177.0,2022-01-31,100%,Almindeligfrihandel,"Etagebolig-bygning,flerfamiliehusellerto-familiehus",2010.0,95.0,12.57196634,55.6167048,"RobertJacobsensVej82,3,-4,2300KøbenhavnS",RobertJacobsensVej,82,4.0,3,2022,1,31
318,112307,"JensOttoKragsGade17,1.1,2300KøbenhavnS",2150000.0,451900.0,5525000,106.0,52122.0,2022-01-25,100%,Almindeligfrihandel,"Etagebolig-bygning,flerfamiliehusellerto-familiehus",2006.0,94.0,12.57018086,55.65890247,"JensOttoKragsGade17,1,-1,2300KøbenhavnS",JensOttoKragsGade,17,2.0,4,2022,1,25
319,131723,"Strandlodsvej18V,1.1,2300KøbenhavnS",2300000.0,376400.0,6250000,126.0,49603.0,2022-01-20,100%,Almindeligfrihandel,"Etagebolig-bygning,flerfamiliehusellerto-familiehus",1963.0,115.0,12.62066573,55.66622531,"Strandlodsvej18V,1,-1,2300KøbenhavnS",Strandlodsvej,18,2.0,3,2022,1,20
320,105096,"CarlTh.ZahlesGade8,1.th,2300KøbenhavnS",2200000.0,374600.0,4100000,92.0,44565.0,2022-01-19,100%,Almindeligfrihandel,"Etagebolig-bygning,flerfamiliehusellerto-familiehus",2005.0,81.0,12.57442632,55.66226146,"Hjortevej18,9480Løkken",CarlTh.ZahlesGade,8,2.0,2,2022,1,19
323,140179,"Østerdalsgade1B,4.mf,2300KøbenhavnS",660000.0,55200.0,1695000,39.0,43461.0,2022-01-16,100%,Almindeligfrihandel,"Etagebolig-bygning,flerfamiliehusellerto-familiehus",1936.0,32.0,12.60314351,55.65500935,"Østerdalsgade1B,4mf,2300KøbenhavnS",Østerdalsgade,1,5.0,1,2022,1,16
324,139752,"PederLykkesVej58,st.tv,2300KøbenhavnS",420000.0,80000.0,2295000,61.0,37622.0,2022-01-15,100%,Almindeligfrihandel,"Etagebolig-bygning,flerfamiliehusellerto-familiehus",1935.0,55.0,12.60211531,55.6542481,"Englandsvej62,st,2300KøbenhavnS",PederLykkesVej,58,1.0,2,2022,1,15
325,136445,"KvintusAllé14,2.1,2300KøbenhavnS",2300000.0,346600.0,5157500,107.0,48200.0,2022-01-15,100%,Almindeligfrihandel,"Etagebolig-bygning,flerfamiliehusellerto-familiehus",2006.0,100.0,12.61904007,55.65992255,"KvintusAllé14,2,-1,2300KøbenhavnS",KvintusAllé,14,3.0,4,2022,1,15
326,133424,"Ålandsgade20,3.mf,2300KøbenhavnS",940000.0,150600.0,2750000,51.0,53921.0,2022-01-15,100%,Almindeligfrihandel,"Etagebolig-bygning,flerfamiliehusellerto-familiehus",1940.0,47.0,12.60643821,55.66256882,"Ålandsgade20,3mf,2300KøbenhavnS",Ålandsgade,20,4.0,2,2022,1,15
327,113375,"ØrestadsBoulevard59A,9.904,2300KøbenhavnS",2100000.0,434900.0,3950000,102.0,38725.0,2022-01-15,100%,Almindeligfrihandel,"Etagebolig-bygning,flerfamiliehusellerto-familiehus",2005.0,89.0,12.58191418,55.63399005,"ØrestadsBoulevard59A,9,-904,2300KøbenhavnS",ØrestadsBoulevard,59,10.0,3,2022,1,15
328,136340,"Kongelundsvej63C,2.1,2300KøbenhavnS",740000.0,178600.0,1695000,46.0,36847.0,2022-01-15,100%,Almindeligfrihandel,"Etagebolig-bygning,flerfamiliehusellerto-familiehus",1969.0,43.0,12.59025366,55.63783497,"Stenløkken93,3460Birkerød",Kongelundsvej,63,3.0,1,2022,1,15
329,136601,"Spaniensgade23,1.mf,2300KøbenhavnS",1150000.0,111800.0,3700000,72.0,51388.0,2022-01-15,100%,Almindeligfrihandel,"Etagebolig-bygning,flerfamiliehusellerto-familiehus",1941.0,69.0,12.60965228,55.66013676,"Spaniensgade23,1mf,2300KøbenhavnS",Spaniensgade,23,2.0,3,2022,1,15
331,418165,"AmagerStrandvej162C,8.tv,2300KøbenhavnS",3650000.0,519700.0,11750000,155.0,75806.0,2022-01-15,100%,Almindeligfrihandel,"Etagebolig-bygning,flerfamiliehusellerto-familiehus",2014.0,136.0,12.63397703,55.65850699,"AmagerStrandvej162C,8tv,2300KøbenhavnS",AmagerStrandvej,162,9.0,4,2022,1,15
332,113861,"EdvardThomsensVej81,2.4,2300KøbenhavnS",1700000.0,354400.0,3925000,88.0,44602.0,2022-01-15,100%,Almindeligfrihandel,"Etagebolig-bygning,flerfamiliehusellerto-familiehus",2006.0,81.0,12.57880004,55.63257148,"EdvardThomsensVej81,2,-4,2300KøbenhavnS",EdvardThomsensVej,81,3.0,3,2022,1,15
333,136154,"Reberbanegade33,st.th,2300KøbenhavnS",890000.0,133700.0,2200000,53.0,41509.0,2022-01-15,100%,Almindeligfrihandel,"Etagebolig-bygning,flerfamiliehusellerto-familiehus",1940.0,48.0,12.60589875,55.66208788,"Øresundsvej110,3tv,2300KøbenhavnS",Reberbanegade,33,1.0,2,2022,1,15
334,135706,"Ålandsgade26,3.tv,2300KøbenhavnS",760000.0,97000.0,1950000,41.0,47560.0,2022-01-15,100%,Almindeligfrihandel,"Etagebolig-bygning,flerfamiliehusellerto-familiehus",1940.0,38.0,12.60698838,55.66209827,"Küchlersgade31,1774KøbenhavnV",Ålandsgade,26,4.0,1,2022,1,15
335,415775,"RobertJacobsensVej8,1.th,2300KøbenhavnS",2350000.0,553000.0,4450000,111.0,40090.0,2022-01-15,100%,Almindeligfrihandel,"Etagebolig-bygning,flerfamiliehusellerto-familiehus",2017.0,104.0,12.57467044,55.62360477,"RobertJacobsensVej8,1th,2300KøbenhavnS",RobertJacobsensVej,8,2.0,4,2022,1,15
336,103640,"Halfdansgade1,1.tv,2300KøbenhavnS",1550000.0,99800.0,3950000,67.0,58955.0,2022-01-15,100%,Almindeligfrihandel,"Etagebolig-bygning,flerfamiliehusellerto-familiehus",1913.0,60.0,12.57554541,55.66558179,"Halfdansgade1,1tv,2300KøbenhavnS",Halfdansgade,1,2.0,2,2022,1,15
337,133722,"Øresundsvej112,3.tv,2300KøbenhavnS",1050000.0,86300.0,2725000,62.0,43951.0,2022-01-15,100%,Almindeligfrihandel,"Etagebolig-bygning,flerfamiliehusellerto-familiehus",1932.0,54.0,12.62279796,55.66131986,"Øresundsvej112,3tv,2300KøbenhavnS",Øresundsvej,112,4.0,2,2022,1,15
338,133416,"Reberbanegade11,st.tv,2300KøbenhavnS",950000.0,171300.0,2600000,57.0,45614.0,2022-01-15,100%,Almindeligfrihandel,"Etagebolig-bygning,flerfamiliehusellerto-familiehus",1940.0,53.0,12.60498883,55.66214279,"Reberbanegade11,sttv,2300KøbenhavnS",Reberbanegade,11,1.0,2,2022,1,15
339,138782,"RobertJacobsensVej78,9.p8,2300KøbenhavnS",1750000.0,384500.0,3700000,86.0,43023.0,2022-01-15,100%,Almindeligfrihandel,"Etagebolig-bygning,flerfamiliehusellerto-familiehus",2010.0,74.0,12.57205823,55.6171277,"None,2300KøbenhavnS",RobertJacobsensVej,78,10.0,2,2022,1,15
340,130570,"Vermlandsgade76,st.th,2300KøbenhavnS",950000.0,203800.0,2700000,60.0,45000.0,2022-01-15,100%,Almindeligfrihandel,"Etagebolig-bygning,flerfamiliehusellerto-familiehus",1931.0,53.0,12.61142951,55.6666676,"Vermlandsgade76,stth,2300KøbenhavnS",Vermlandsgade,76,1.0,2,2022,1,15
341,133794,"Parmagade42,st.tv,2300KøbenhavnS",800000.0,62800.0,2250000,51.0,44117.0,2022-01-15,100%,Almindeligfrihandel,"Etagebolig-bygning,flerfamiliehusellerto-familiehus",1934.0,46.0,12.61634482,55.65319428,"Parmagade42,sttv,2300KøbenhavnS",Parmagade,42,1.0,2,2022,1,15
342,407506,"Rundholtsvej26,st.3,2300KøbenhavnS",3200000.0,384700.0,6315000,131.0,48206.0,2022-01-15,100%,Almindeligfrihandel,"Etagebolig-bygning,flerfamiliehusellerto-familiehus",2014.0,120.0,12.56544284,55.65346915,"Rundholtsvej26,st,-3,2300KøbenhavnS",Rundholtsvej,26,1.0,4,2022,1,15
343,102870,"Weidekampsgade37,1.th,2300KøbenhavnS",2400000.0,466200.0,4650000,87.0,53448.0,2022-01-15,100%,Almindeligfrihandel,"Etagebolig-bygning,flerfamiliehusellerto-familiehus",2007.0,76.0,12.58254277,55.66694325,"Weidekampsgade37,1th,2300KøbenhavnS",Weidekampsgade,37,2.0,3,2022,1,15
344,139696,"RichardMortensensVej73,1.t1,2300KøbenhavnS",2500000.0,571500.0,4100000,127.0,32283.0,2022-01-15,100%,Almindeligfrihandel,"Etagebolig-bygning,flerfamiliehusellerto-familiehus",2010.0,115.0,12.57140911,55.61744812,"None,2300KøbenhavnS",RichardMortensensVej,73,2.0,5,2022,1,15
345,127822,"Hessensgade45,st.th,2300KøbenhavnS",920000.0,195400.0,3200000,63.0,50793.0,2022-01-15,100%,Almindeligfrihandel,"Etagebolig-bygning,flerfamiliehusellerto-familiehus",1970.0,58.0,12.61690064,55.66378624,"Præstøvej10,4700Næstved",Hessensgade,45,1.0,2,2022,1,15
346,136581,"Lyongade24,3.th,2300KøbenhavnS",780000.0,69400.0,2450000,46.0,53260.0,2022-01-15,100%,Almindeligfrihandel,"Etagebolig-bygning,flerfamiliehusellerto-familiehus",1941.0,43.0,12.60932873,55.66033854,"Lyongade24,3th,2300KøbenhavnS",Lyongade,24,4.0,2,2022,1,15
347,132859,"Messinavej1,1.th,2300KøbenhavnS",1100000.0,103100.0,2750000,67.0,41044.0,2022-01-15,100%,Almindeligfrihandel,"Etagebolig-bygning,flerfamiliehusellerto-familiehus",1932.0,59.0,12.62079604,55.66116257,"Mosevænget13,2680SolrødStrand",Messinavej,1,2.0,2,2022,1,15
348,136937,"Greisvej15,1.th,2300KøbenhavnS",1000000.0,170900.0,2050000,59.0,34745.0,2022-01-15,100%,Almindeligfrihandel,"Etagebolig-bygning,flerfamiliehusellerto-familiehus",1935.0,53.0,12.61804291,55.64499779,"Greisvej15,1th,2300KøbenhavnS",Greisvej,15,2.0,2,2022,1,15
350,132397,"Breslaugade10,1.3,2300KøbenhavnS",630000.0,107700.0,1550000,38.0,40789.0,2022-01-15,100%,Almindeligfrihandel,"Etagebolig-bygning,flerfamiliehusellerto-familiehus",1976.0,35.0,12.61862649,55.66389662,"Kingosvej42,2tv,2630Taastrup",Breslaugade,10,2.0,1,2022,1,15
351,113821,"EdvardThomsensVej91,9.tv,2300KøbenhavnS",1600000.0,301900.0,3495000,81.0,43148.0,2022-01-15,100%,Almindeligfrihandel,"Etagebolig-bygning,flerfamiliehusellerto-familiehus",2005.0,69.0,12.57998321,55.63244745,"EdvardThomsensVej91,9tv,2300KøbenhavnS",EdvardThomsensVej,91,10.0,3,2022,1,15
352,136830,"Sixtusvej15,1.th,2300KøbenhavnS",1950000.0,199200.0,3760000,72.0,52222.0,2022-01-15,100%,Almindeligfrihandel,"Etagebolig-bygning,flerfamiliehusellerto-familiehus",1934.0,67.0,12.61728183,55.6594664,"Sixtusvej15,1th,2300KøbenhavnS",Sixtusvej,15,2.0,3,2022,1,15
353,139638,"RichardMortensensVej67,1.t2,2300KøbenhavnS",2300000.0,602700.0,5050000,129.0,39147.0,2022-01-15,100%,Almindeligfrihandel,"Etagebolig-bygning,flerfamiliehusellerto-familiehus",2010.0,117.0,12.57119719,55.61792341,"None,2300KøbenhavnS",RichardMortensensVej,67,2.0,5,2022,1,15
354,128265,"Bremensgade12,3.th,2300KøbenhavnS",2100000.0,379600.0,5695000,97.0,58711.0,2022-01-15,100%,Almindeligfrihandel,"Etagebolig-bygning,flerfamiliehusellerto-familiehus",2015.0,87.0,12.61589046,55.66606043,"Bremensgade12,3th,2300KøbenhavnS",Bremensgade,12,4.0,4,2022,1,15
355,105461,"Amagerfælledvej31,1.th,2300KøbenhavnS",1950000.0,179000.0,4995000,109.0,45825.0,2022-01-15,100%,Almindeligfrihandel,"Etagebolig-bygning,flerfamiliehusellerto-familiehus",1914.0,99.0,12.59490384,55.6652178,"Amagerfælledvej31,1th,2300KøbenhavnS",Amagerfælledvej,31,2.0,4,2022,1,15
356,138842,"Hyacintgården3,3.th,2300KøbenhavnS",1050000.0,164100.0,2722000,68.0,40029.0,2022-01-15,100%,Almindeligfrihandel,"Etagebolig-bygning,flerfamiliehusellerto-familiehus",1968.0,65.0,12.61245202,55.64824525,"Hyacintgården3,3th,2300KøbenhavnS",Hyacintgården,3,4.0,3,2022,1,15
357,138791,"Hyacintgården1,st.tv,2300KøbenhavnS",840000.0,143200.0,2200000,59.0,37288.0,2022-01-15,100%,Almindeligfrihandel,"Etagebolig-bygning,flerfamiliehusellerto-familiehus",1968.0,56.0,12.61264516,55.64824972,"Hyacintgården1,sttv,2300KøbenhavnS",Hyacintgården,1,1.0,2,2022,1,15
358,139659,"RichardMortensensVej69,3.2,2300KøbenhavnS",1550000.0,353300.0,3275000,80.0,40937.0,2022-01-15,100%,Almindeligfrihandel,"Etagebolig-bygning,flerfamiliehusellerto-familiehus",2010.0,68.0,12.57118442,55.61769754,"Kystvejen186,4671Strøby",RichardMortensensVej,69,4.0,2,2022,1,15
359,133799,"Maltagade24,1.th,2300KøbenhavnS",930000.0,66900.0,2425000,54.0,44907.0,2022-01-14,100%,Almindeligfrihandel,"Etagebolig-bygning,flerfamiliehusellerto-familiehus",1934.0,49.0,12.61668694,55.65302062,"Maltagade24,1th,2300KøbenhavnS",Maltagade,24,2.0,2,2022,1,14
360,134325,"Bremensgade33,3.th,2300KøbenhavnS",1000000.0,113500.0,2650000,62.0,42741.0,2022-01-14,100%,Almindeligfrihandel,"Etagebolig-bygning,flerfamiliehusellerto-familiehus",1939.0,57.0,12.61719729,55.66579618,"Bremensgade33,3th,2300KøbenhavnS",Bremensgade,33,4.0,2,2022,1,14
361,134195,"Grækenlandsvej23,3.th,2300KøbenhavnS",910000.0,65600.0,2180000,53.0,41132.0,2022-01-14,100%,Almindeligfrihandel,"Etagebolig-bygning,flerfamiliehusellerto-familiehus",1934.0,48.0,12.61577819,55.65304437,"Grækenlandsvej23,3th,2300KøbenhavnS",Grækenlandsvej,23,4.0,2,2022,1,14
362,132005,"Palermovej1,3.th,2300KøbenhavnS",900000.0,74300.0,2400000,52.0,46153.0,2022-01-14,100%,Almindeligfrihandel,"Etagebolig-bygning,flerfamiliehusellerto-familiehus",1937.0,48.0,12.62133272,55.6604226,"Strandlodsvej13C,9tv,2300KøbenhavnS",Palermovej,1,4.0,2,2022,1,14
366,103283,"Weidekampsgade63,2.1,2300KøbenhavnS",2800000.0,513300.0,5425000,102.0,53186.0,2022-01-05,100%,Almindeligfrihandel,"Etagebolig-bygning,flerfamiliehusellerto-familiehus",2006.0,90.0,12.58141497,55.66749099,"Weidekampsgade63,2,-1,2300KøbenhavnS",Weidekampsgade,63,3.0,3,2022,1,5
367,134172,"Parmagade36,st.th,2300KøbenhavnS",1200000.0,104000.0,3600000,80.0,45000.0,2022-01-05,100%,Almindeligfrihandel,"Etagebolig-bygning,flerfamiliehusellerto-familiehus",1934.0,138.0,12.61583839,55.65312119,"Parmagade36,stth,2300KøbenhavnS",Parmagade,36,1.0,3,2022,1,5
368,136816,"Messinavej12,st.th,2300KøbenhavnS",690000.0,107000.0,1800000,43.0,41860.0,2022-01-04,100%,Almindeligfrihandel,"Etagebolig-bygning,flerfamiliehusellerto-familiehus",1932.0,48.0,12.62094514,55.66019954,"Messinavej12,stth,2300KøbenhavnS",Messinavej,12,1.0,1,2022,1,4
369,136461,"Elbagade71,4.tv,2300KøbenhavnS",1000000.0,94100.0,2195000,59.0,37203.0,2022-01-04,100%,Almindeligfrihandel,"Etagebolig-bygning,flerfamiliehusellerto-familiehus",1935.0,53.0,12.61783059,55.65476935,"Øresundsvej156,3mf,2300KøbenhavnS",Elbagade,71,5.0,2,2022,1,4
370,106889,"Markmandsgade25,1.tv,2300KøbenhavnS",3350000.0,498900.0,5250000,118.0,44491.0,2022-01-04,100%,Almindeligfrihandel,"Etagebolig-bygning,flerfamiliehusellerto-familiehus",2014.0,107.0,12.60035572,55.66846079,"Markmandsgade25,1tv,2300KøbenhavnS",Markmandsgade,25,2.0,4,2022,1,4
371,132696,"Holmbladsgade79,2.th,2300KøbenhavnS",1000000.0,65100.0,2635000,61.0,43196.0,2022-01-04,100%,Almindeligfrihandel,"Etagebolig-bygning,flerfamiliehusellerto-familiehus",1905.0,53.0,12.61258228,55.66644696,"Holmbladsgade79,2th,2300KøbenhavnS",Holmbladsgade,79,3.0,2,2022,1,4
372,134242,"Hessensgade27,3.th,2300KøbenhavnS",910000.0,154700.0,2375000,56.0,42410.0,2022-01-03,100%,Almindeligfrihandel,"Etagebolig-bygning,flerfamiliehusellerto-familiehus",1965.0,50.0,12.61618004,55.66472036,"Hessensgade27,3th,2300KøbenhavnS",Hessensgade,27,4.0,2,2022,1,3
373,142852,"Georginevej12,2.th,2300KøbenhavnS",960000.0,136000.0,2300000,61.0,37704.0,2022-01-03,100%,Almindeligfrihandel,"Etagebolig-bygning,flerfamiliehusellerto-familiehus",1938.0,57.0,12.61300776,55.64470546,"Georginevej12,2th,2300KøbenhavnS",Georginevej,12,3.0,2,2022,1,3
374,144280,"Birketinget2D,3.434,2300KøbenhavnS",680000.0,114600.0,1698000,42.0,40428.0,2022-01-03,100%,Almindeligfrihandel,"Etagebolig-bygning,flerfamiliehusellerto-familiehus",1970.0,37.0,12.60037363,55.65631067,"Dalslandsgade34,5th,2300KøbenhavnS",Birketinget,2,4.0,1,2022,1,3
375,140210,"Englandsvej38C,2.tv,2300KøbenhavnS",960000.0,94700.0,2525000,61.0,41393.0,2022-01-03,100%,Almindeligfrihandel,"Etagebolig-bygning,flerfamiliehusellerto-familiehus",1936.0,55.0,12.60312533,55.65467853,"Englandsvej38C,2tv,2300KøbenhavnS",Englandsvej,38,3.0,2,2022,1,3
376,127834,"Hessensgade12,st.tv,2300KøbenhavnS",930000.0,186100.0,2600000,64.0,40625.0,2022-01-03,100%,Almindeligfrihandel,"Etagebolig-bygning,flerfamiliehusellerto-familiehus",1970.0,61.0,12.61495851,55.66573615,"Willumsvej10,2300KøbenhavnS",Hessensgade,12,1.0,2,2022,1,3
377,131486,"Ungarnsgade35,1.th,2300KøbenhavnS",1150000.0,103100.0,3295000,69.0,47753.0,2022-01-03,100%,Almindeligfrihandel,"Etagebolig-bygning,flerfamiliehusellerto-familiehus",1929.0,62.0,12.61474802,55.66280729,"Ungarnsgade35,1th,2300KøbenhavnS",Ungarnsgade,35,2.0,3,2022,1,3
378,123376,"Ungarnsgade2,st.th,2300KøbenhavnS",1350000.0,112500.0,2800000,69.0,40579.0,2022-01-03,100%,Almindeligfrihandel,"Etagebolig-bygning,flerfamiliehusellerto-familiehus",1903.0,69.0,12.61182524,55.666006,"Ungarnsgade2,stth,2300KøbenhavnS",Ungarnsgade,2,1.0,2,2022,1,3
379,113294,"IslandsBrygge112,2.tv,2300KøbenhavnS",3300000.0,530700.0,8000000,126.0,63492.0,2022-01-03,100%,Almindeligfrihandel,"Etagebolig-bygning,flerfamiliehusellerto-familiehus",2018.0,111.0,12.56488296,55.65546899,"IslandsBrygge112,2tv,2300KøbenhavnS",IslandsBrygge,112,3.0,5,2022,1,3
380,132547,"Jansvej2,2.3,2300KøbenhavnS",860000.0,118700.0,2095000,50.0,41900.0,2022-01-02,100%,Almindeligfrihandel,"Etagebolig-bygning,flerfamiliehusellerto-familiehus",1939.0,48.0,12.61662735,55.6469108,"Horsevænget27,4130VibySjælland",Jansvej,2,3.0,2,2022,1,2
381,133824,"Parmagade38,3.th,2300KøbenhavnS",880000.0,62800.0,2350000,51.0,46078.0,2022-01-02,100%,Almindeligfrihandel,"Etagebolig-bygning,flerfamiliehusellerto-familiehus",1934.0,46.0,12.61600185,55.65314667,"Parmagade38,3th,2300KøbenhavnS",Parmagade,38,4.0,2,2022,1,2
382,109322,"ØrestadsBoulevard63A,5.tv,2300KøbenhavnS",2000000.0,394400.0,4250000,97.0,43814.0,2022-01-02,100%,Almindeligfrihandel,"Etagebolig-bygning,flerfamiliehusellerto-familiehus",2007.0,89.0,12.58153275,55.63285599,"ØrestadsBoulevard63A,5tv,2300KøbenhavnS",ØrestadsBoulevard,63,6.0,4,2022,1,2
383,105006,"VedAmagerport10,5.tv,2300KøbenhavnS",1750000.0,152800.0,5250000,102.0,51470.0,2022-01-02,100%,Almindeligfrihandel,"Etagebolig-bygning,flerfamiliehusellerto-familiehus",1917.0,95.0,12.59609574,55.66758178,"VedAmagerport10,5tv,2300KøbenhavnS",VedAmagerport,10,6.0,3,2022,1,2
384,135879,"Kongelundsvej69B,1.th,2300KøbenhavnS",1050000.0,272700.0,3025000,69.0,43840.0,2022-01-02,100%,Almindeligfrihandel,"Etagebolig-bygning,flerfamiliehusellerto-familiehus",1968.0,65.0,12.58975535,55.63763242,"Kongelundsvej69B,1th,2300KøbenhavnS",Kongelundsvej,69,2.0,3,2022,1,2
385,415766,"RobertJacobsensVej8,st.mf,2300KøbenhavnS",1950000.0,446600.0,3760000,91.0,41318.0,2022-01-02,100%,Almindeligfrihandel,"Etagebolig-bygning,flerfamiliehusellerto-familiehus",2017.0,84.0,12.57467044,55.62360477,"MølleAllé1,3,2500Valby",RobertJacobsensVej,8,1.0,4,2022,1,2
386,108948,"ØrestadsBoulevard63B,1.tv,2300KøbenhavnS",1500000.0,288000.0,3300000,74.0,44594.0,2022-01-02,100%,Almindeligfrihandel,"Etagebolig-bygning,flerfamiliehusellerto-familiehus",2007.0,65.0,12.58170263,55.63283466,"ØrestadsBoulevard63B,1tv,2300KøbenhavnS",ØrestadsBoulevard,63,2.0,3,2022,1,2
387,110540,"Sundholmsvej27,st.th,2300KøbenhavnS",1650000.0,359400.0,4206000,98.0,42918.0,2022-01-02,100%,Almindeligfrihandel,"Etagebolig-bygning,flerfamiliehusellerto-familiehus",1914.0,91.0,12.59611634,55.66220439,"Sundholmsvej27,stth,2300KøbenhavnS",Sundholmsvej,27,1.0,4,2022,1,2
388,134245,"Hessensgade29,1.tv,2300KøbenhavnS",910000.0,154700.0,2400000,56.0,42857.0,2022-01-01,100%,Almindeligfrihandel,"Etagebolig-bygning,flerfamiliehusellerto-familiehus",1965.0,50.0,12.61623713,55.6646391,"Hessensgade29,1tv,2300KøbenhavnS",Hessensgade,29,2.0,2,2022,1,1
389,101491,"J.C.ChristensensGade7,8.tv,2300KøbenhavnS",2600000.0,465800.0,6695000,108.0,61990.0,2022-01-01,100%,Almindeligfrihandel,"Etagebolig-bygning,flerfamiliehusellerto-familiehus",2004.0,100.0,12.57258734,55.66112959,"J.C.ChristensensG7,8tv,2300KøbenhavnS",J.C.ChristensensGade,7,9.0,3,2022,1,1
390,136612,"Spaniensgade23,4.th,2300KøbenhavnS",1150000.0,108500.0,3500000,70.0,50000.0,2022-01-01,100%,Almindeligfrihandel,"Etagebolig-bygning,flerfamiliehusellerto-familiehus",1941.0,67.0,12.60965228,55.66013676,"Spaniensgade23,4th,2300KøbenhavnS",Spaniensgade,23,5.0,3,2022,1,1
391,141069,"RobertJacobsensVej89,10.,2300KøbenhavnS",2950000.0,639300.0,7400000,145.0,51034.0,2022-01-01,100%,Almindeligfrihandel,"Etagebolig-bygning,flerfamiliehusellerto-familiehus",2009.0,131.0,12.57292508,55.61666677,"RobertJacobsensVej89,10,2300KøbenhavnS",RobertJacobsensVej,89,11.0,4,2022,1,1
392,102836,"Weidekampsgade47,st.1,2300KøbenhavnS",3750000.0,846700.0,8020000,141.0,56879.0,2022-01-01,100%,Almindeligfrihandel,"Etagebolig-bygning,flerfamiliehusellerto-familiehus",2007.0,138.0,12.58244203,55.66640543,"Weidekampsgade47,st,-1,2300KøbenhavnS",Weidekampsgade,47,1.0,5,2022,1,1
393,119200,"EdvardThomsensVej63,4.3,2300KøbenhavnS",2150000.0,455800.0,3900000,108.0,36111.0,2022-01-01,100%,Almindeligfrihandel,"Etagebolig-bygning,flerfamiliehusellerto-familiehus",2007.0,83.0,12.57744928,55.63276459,"EdvardThomsensVej63,4,-3,2300KøbenhavnS",EdvardThomsensVej,63,5.0,3,2022,1,1
394,140095,"RichardMortensensVej77,3.2,2300KøbenhavnS",1900000.0,441700.0,3775000,97.0,38917.0,2022-01-01,100%,Almindeligfrihandel,"Etagebolig-bygning,flerfamiliehusellerto-familiehus",2010.0,85.0,12.57100923,55.61717968,"RichardMortensensV77,3,-2,2300KøbenhavnS",RichardMortensensVej,77,4.0,2,2022,1,1
395,133450,"Reberbanegade13,st.tv,2300KøbenhavnS",1000000.0,185800.0,2350000,63.0,37301.0,2022-01-01,100%,Almindeligfrihandel,"Etagebolig-bygning,flerfamiliehusellerto-familiehus",1940.0,57.0,12.6051475,55.66220062,"Reberbanegade13,stth,2300KøbenhavnS",Reberbanegade,13,1.0,2,2022,1,1
396,119174,"EdvardThomsensVej61,st.,2300KøbenhavnS",2150000.0,527300.0,4125000,121.0,34090.0,2022-01-01,100%,Almindeligfrihandel,"Etagebolig-bygning,flerfamiliehusellerto-familiehus",2007.0,96.0,12.57722001,55.6327935,"EdvardThomsensVej61,st,2300KøbenhavnS",EdvardThomsensVej,61,1.0,4,2022,1,1
397,135222,"Ålandsgade47,4.tv,2300KøbenhavnS",1000000.0,92200.0,2570000,56.0,45892.0,2022-01-01,100%,Almindeligfrihandel,"Etagebolig-bygning,flerfamiliehusellerto-familiehus",1940.0,51.0,12.6072517,55.66228376,"Bernersvej9,4000Roskilde",Ålandsgade,47,5.0,2,2022,1,1
399,407973,"Rundholtsvej56,8.2,2300KøbenhavnS",3900000.0,431700.0,11500000,149.0,77181.0,2022-01-01,100%,Almindeligfrihandel,"Etagebolig-bygning,flerfamiliehusellerto-familiehus",2014.0,138.0,12.56480672,55.65398841,"Rundholtsvej56,8,-2,2300KøbenhavnS",Rundholtsvej,56,9.0,4,2022,1,1
400,108890,"ØrestadsBoulevard61E,4.th,2300KøbenhavnS",1550000.0,288000.0,3400000,74.0,45945.0,2022-01-01,100%,Almindeligfrihandel,"Etagebolig-bygning,flerfamiliehusellerto-familiehus",2007.0,65.0,12.58193829,55.63341171,"ØrestadsBoulevard61E,4th,2300KøbenhavnS",ØrestadsBoulevard,61,5.0,3,2022,1,1
401,140580,"RobertJacobsensVej72,2.t2,2300KøbenhavnS",2700000.0,597600.0,5100000,128.0,39843.0,2022-01-01,100%,Almindeligfrihandel,"Etagebolig-bygning,flerfamiliehusellerto-familiehus",2010.0,116.0,12.57184554,55.61758916,"None,2300KøbenhavnS",RobertJacobsensVej,72,3.0,5,2022,1,1
402,422725,"RobertJacobsensVej5B,3.th,2300KøbenhavnS",1850000.0,326700.0,1572500,86.0,18284.0,2022-01-01,100%,Almindeligfrihandel,"Etagebolig-bygning,flerfamiliehusellerto-familiehus",2017.0,73.0,12.5754536,55.62340128,"RobertJacobsensVej5B,3th,2300KøbenhavnS",RobertJacobsensVej,5,4.0,3,2022,1,1
403,424605,"RichardMortensensVej10A,4.th,2300KøbenhavnS",1600000.0,281600.0,3625000,82.0,44207.0,2022-01-01,100%,Almindeligfrihandel,"Etagebolig-bygning,flerfamiliehusellerto-familiehus",2019.0,73.0,12.57157377,55.62412183,"RichardMortensensV10A,4th,2300KøbenhavnS",RichardMortensensVej,10,5.0,2,2022,1,1
404,132423,"MellemfortsAllé2,1.tv,2300KøbenhavnS",1050000.0,129500.0,2605000,62.0,42016.0,2022-01-01,100%,Almindeligfrihandel,"Etagebolig-bygning,flerfamiliehusellerto-familiehus",1932.0,55.0,12.62013915,55.66011157,"MellemfortsAllé2,1tv,2300KøbenhavnS",MellemfortsAllé,2,2.0,2,2022,1,1
405,117820,"C.F.MøllersAllé60,8.th,2300KøbenhavnS",1900000.0,374800.0,4500000,94.0,47872.0,2022-01-01,100%,Almindeligfrihandel,"Etagebolig-bygning,flerfamiliehusellerto-familiehus",2007.0,81.0,12.5785066,55.63436188,"C.F.MøllersAllé60,8th,2300KøbenhavnS",C.F.MøllersAllé,60,9.0,3,2022,1,1
406,135429,"Grækenlandsvej37,3.tv,2300KøbenhavnS",910000.0,90300.0,2174000,53.0,41018.0,2022-01-01,100%,Almindeligfrihandel,"Etagebolig-bygning,flerfamiliehusellerto-familiehus",1934.0,48.0,12.61632984,55.65208583,"Lindevej4,2791Dragør",Grækenlandsvej,37,4.0,2,2022,1,1
407,134301,"Bremensgade29,2.th,2300KøbenhavnS",1000000.0,113500.0,2795000,62.0,45080.0,2022-01-01,100%,Almindeligfrihandel,"Etagebolig-bygning,flerfamiliehusellerto-familiehus",1939.0,57.0,12.61749365,55.66590622,"Bremensgade29,2th,2300KøbenhavnS",Bremensgade,29,3.0,2,2022,1,1
408,127331,"Amagerbrogade65,2.,2300KøbenhavnS",3400000.0,363200.0,7795000,179.0,43547.0,2022-01-01,100%,Almindeligfrihandel,"Etagebolig-bygning,flerfamiliehusellerto-familiehus",1882.0,155.0,12.6039345,55.66149769,"Amagerbrogade65,2,2300KøbenhavnS",Amagerbrogade,65,3.0,4,2022,1,1
409,135128,"Marengovej4,1.th,2300KøbenhavnS",930000.0,104900.0,2220000,51.0,43529.0,2022-01-01,100%,Almindeligfrihandel,"Etagebolig-bygning,flerfamiliehusellerto-familiehus",1935.0,48.0,12.62016748,55.65845073,"Marengovej4,1th,2300KøbenhavnS",Marengovej,4,2.0,2,2022,1,1
412,140264,"Dalføret3,4.tv,2300KøbenhavnS",960000.0,104900.0,2845000,61.0,46639.0,2022-01-01,100%,Almindeligfrihandel,"Etagebolig-bygning,flerfamiliehusellerto-familiehus",1936.0,55.0,12.60251593,55.65486406,"Dalføret3,4tv,2300KøbenhavnS",Dalføret,3,5.0,2,2022,1,1
413,125553,"Kastrupvej50,4.l,2300KøbenhavnS",1100000.0,165300.0,2125000,63.0,33730.0,2022-01-01,100%,Almindeligfrihandel,"Etagebolig-bygning,flerfamiliehusellerto-familiehus",1970.0,55.0,12.61704456,55.65567681,"Adriansvej6,2300KøbenhavnS",Kastrupvej,50,5.0,2,2022,1,1
414,140231,"Østerdalsgade3B,4.mf,2300KøbenhavnS",1050000.0,128800.0,2695000,68.0,39632.0,2022-01-01,100%,Almindeligfrihandel,"Etagebolig-bygning,flerfamiliehusellerto-familiehus",1936.0,63.0,12.60272073,55.65510918,"Østerdalsgade3B,4mf,2300KøbenhavnS",Østerdalsgade,3,5.0,2,2022,1,1
415,140178,"Østerdalsgade1B,4.tv,2300KøbenhavnS",680000.0,55200.0,1720000,41.0,41951.0,2022-01-01,100%,Almindeligfrihandel,"Etagebolig-bygning,flerfamiliehusellerto-familiehus",1936.0,34.0,12.60314351,55.65500935,"Øresundsvej47A,2tv,2300KøbenhavnS",Østerdalsgade,1,5.0,1,2022,1,1
416,104055,"VedSønderport22,4.tv,2300KøbenhavnS",1250000.0,95900.0,3300000,64.0,51562.0,2022-01-01,100%,Almindeligfrihandel,"Etagebolig-bygning,flerfamiliehusellerto-familiehus",1932.0,57.0,12.60164416,55.66675423,"Amagerbrogade32,4tv,2300KøbenhavnS",VedSønderport,22,5.0,2,2022,1,1
417,136372,"SundbyParkvej8,4.th,2300KøbenhavnS",2000000.0,335700.0,5595000,90.0,62166.0,2022-01-01,100%,Almindeligfrihandel,"Etagebolig-bygning,flerfamiliehusellerto-familiehus",2007.0,77.0,12.63089863,55.66241623,"SundbyParkvej8,4th,2300KøbenhavnS",SundbyParkvej,8,5.0,3,2022,1,1
418,132742,"TychoBrahesAllé10,4.tv,2300KøbenhavnS",1600000.0,80000.0,3850000,85.0,45294.0,2022-01-01,100%,Almindeligfrihandel,"Etagebolig-bygning,flerfamiliehusellerto-familiehus",1904.0,78.0,12.61135726,55.65523458,"TychoBrahesAllé10,4tv,2300KøbenhavnS",TychoBrahesAllé,10,5.0,3,2022,1,1
419,109386,"C.F.MøllersAllé68,9.th,2300KøbenhavnS",2050000.0,416400.0,4900000,103.0,47572.0,2022-01-01,100%,Almindeligfrihandel,"Etagebolig-bygning,flerfamiliehusellerto-familiehus",2007.0,90.0,12.57776102,55.63457005,"C.F.MøllersAllé68,9th,2300KøbenhavnS",C.F.MøllersAllé,68,10.0,3,2022,1,1
420,105030,"VedLinden4,5.tv,2300KøbenhavnS",1350000.0,116300.0,3969000,74.0,53635.0,2021-12-31,100%,Almindeligfrihandel,"Etagebolig-bygning,flerfamiliehusellerto-familiehus",1915.0,67.0,12.59577411,55.66734322,"Signesvej2,4200Slagelse",VedLinden,4,6.0,3,2021,12,31
421,107279,"Myggenæsgade3,6.2,2300KøbenhavnS",3550000.0,563300.0,7150000,126.0,56746.0,2021-12-31,100%,Almindeligfrihandel,"Etagebolig-bygning,flerfamiliehusellerto-familiehus",2006.0,115.0,12.58415453,55.66533048,"Myggenæsgade3,6,-2,2300KøbenhavnS",Myggenæsgade,3,7.0,3,2021,12,31
422,128307,"Strandlodsvej9D,st.,2300KøbenhavnS",870000.0,708700.0,5050000,90.0,56111.0,2021-12-31,100%,Almindeligfrihandel,"Etagebolig-bygning,flerfamiliehusellerto-familiehus",1900.0,90.0,12.6215007,55.66684375,"Strandlodsvej9D,st,2300KøbenhavnS",Strandlodsvej,9,1.0,4,2021,12,31
423,423073,"RobertJacobsensVej5B,9.tv,2300KøbenhavnS",2750000.0,505700.0,5395000,126.0,42817.0,2021-12-31,100%,Almindeligfrihandel,"Etagebolig-bygning,flerfamiliehusellerto-familiehus",2017.0,113.0,12.5754536,55.62340128,"Kalsholtvej6,8600Silkeborg",RobertJacobsensVej,5,10.0,4,2021,12,31
424,133420,"Ålandsgade20,2.tv,2300KøbenhavnS",900000.0,144500.0,2695000,49.0,55000.0,2021-12-30,100%,Almindeligfrihandel,"Etagebolig-bygning,flerfamiliehusellerto-familiehus",1940.0,45.0,12.60643821,55.66256882,"Artillerivej120,sttv,2300KøbenhavnS",Ålandsgade,20,3.0,2,2021,12,30
425,133457,"Reberbanegade13,3.tv,2300KøbenhavnS",1050000.0,175500.0,3350000,60.0,55833.0,2021-12-30,100%,Almindeligfrihandel,"Etagebolig-bygning,flerfamiliehusellerto-familiehus",1940.0,54.0,12.6051475,55.66220062,"PrinsValdemarsVej43,2820Gentofte",Reberbanegade,13,4.0,3,2021,12,30
426,136799,"Kongelundsvej99,2.,2300KøbenhavnS",1400000.0,224100.0,3200000,90.0,35555.0,2021-12-22,100%,Almindeligfrihandel,"Etagebolig-bygning,flerfamiliehusellerto-familiehus",1953.0,80.0,12.58856267,55.63506258,"Kongelundsvej99,2,2300KøbenhavnS",Kongelundsvej,99,3.0,3,2021,12,22
427,135487,"Polensgade22,1.th,2300KøbenhavnS",1000000.0,83100.0,2470000,57.0,43333.0,2021-12-22,100%,Almindeligfrihandel,"Etagebolig-bygning,flerfamiliehusellerto-familiehus",1916.0,50.0,12.61453426,55.66494343,"Polensgade22,1th,2300KøbenhavnS",Polensgade,22,2.0,2,2021,12,22
428,139193,"RobertJacobsensVej82,7.2,2300KøbenhavnS",1950000.0,441700.0,4310000,97.0,44432.0,2021-12-21,100%,Almindeligfrihandel,"Etagebolig-bygning,flerfamiliehusellerto-familiehus",2010.0,85.0,12.57196634,55.6167048,"RobertJacobsensVej82,7,-2,2300KøbenhavnS",RobertJacobsensVej,82,8.0,3,2021,12,21
429,137471,"Gullandsgade10,2.th,2300KøbenhavnS",1100000.0,132200.0,2410000,66.0,36515.0,2021-12-21,100%,Almindeligfrihandel,"Etagebolig-bygning,flerfamiliehusellerto-familiehus",1912.0,59.0,12.59984011,55.6580322,"Gullandsgade10,2th,2300KøbenhavnS",Gullandsgade,10,3.0,2,2021,12,21
430,407541,"Rundholtsvej26,8.4,2300KøbenhavnS",3050000.0,337700.0,7995000,115.0,69521.0,2021-12-20,100%,Almindeligfrihandel,"Etagebolig-bygning,flerfamiliehusellerto-familiehus",2014.0,104.0,12.56544284,55.65346915,"Rundholtsvej26,8,-4,2300KøbenhavnS",Rundholtsvej,26,9.0,3,2021,12,20
431,102880,"Weidekampsgade47,2.1,2300KøbenhavnS",4250000.0,914200.0,9950000,148.0,67229.0,2021-12-15,100%,Almindeligfrihandel,"Etagebolig-bygning,flerfamiliehusellerto-familiehus",2007.0,149.0,12.58244203,55.66640543,"Weidekampsgade47,2,-1,2300KøbenhavnS",Weidekampsgade,47,3.0,5,2021,12,15
432,136193,"Reberbanegade39,3.tv,2300KøbenhavnS",940000.0,133700.0,2495000,51.0,48921.0,2021-12-15,100%,Almindeligfrihandel,"Etagebolig-bygning,flerfamiliehusellerto-familiehus",1940.0,46.0,12.6063289,55.66225579,"Pedersvej7,4600Køge",Reberbanegade,39,4.0,2,2021,12,15
433,140559,"RobertJacobsensVej70,2.t4,2300KøbenhavnS",2050000.0,488400.0,3875000,106.0,36556.0,2021-12-15,100%,Almindeligfrihandel,"Etagebolig-bygning,flerfamiliehusellerto-familiehus",2010.0,94.0,12.57207819,55.61774495,"Søllingsvej3,2920Charlottenlund",RobertJacobsensVej,70,3.0,3,2021,12,15
434,103761,"Weidekampsgade57,3.2,2300KøbenhavnS",2150000.0,359300.0,4350000,79.0,55063.0,2021-12-15,100%,Almindeligfrihandel,"Etagebolig-bygning,flerfamiliehusellerto-familiehus",2006.0,63.0,12.5820072,55.66724161,"Weidekampsgade57,3,-2,2300KøbenhavnS",Weidekampsgade,57,4.0,2,2021,12,15
435,103326,"Klaksvigsgade5,3.tv,2300KøbenhavnS",2900000.0,536200.0,5750000,106.0,54245.0,2021-12-15,100%,Almindeligfrihandel,"Etagebolig-bygning,flerfamiliehusellerto-familiehus",2006.0,94.0,12.58094434,55.66720351,"Klaksvigsgade5,3tv,2300KøbenhavnS",Klaksvigsgade,5,4.0,3,2021,12,15
436,128765,"Rodosvej7A,2.th,2300KøbenhavnS",760000.0,103100.0,1875000,45.0,41666.0,2021-12-15,100%,Almindeligfrihandel,"Etagebolig-bygning,flerfamiliehusellerto-familiehus",1940.0,39.0,12.61338906,55.65060949,"Rodosvej7A,2th,2300KøbenhavnS",Rodosvej,7,3.0,1,2021,12,15
437,136577,"Ålandsgade22,2.th,2300KøbenhavnS",1000000.0,155500.0,2525000,56.0,45089.0,2021-12-15,100%,Almindeligfrihandel,"Etagebolig-bygning,flerfamiliehusellerto-familiehus",1940.0,52.0,12.60665487,55.66237712,"Ålandsgade22,2th,2300KøbenhavnS",Ålandsgade,22,3.0,2,2021,12,15
438,135630,"Frankrigsgade23,1.tv,2300KøbenhavnS",960000.0,94200.0,2500000,54.0,46296.0,2021-12-15,100%,Almindeligfrihandel,"Etagebolig-bygning,flerfamiliehusellerto-familiehus",1936.0,49.0,12.60826349,55.66209833,"Hybenhaven6,8520Lystrup",Frankrigsgade,23,2.0,2,2021,12,15
439,141010,"RobertJacobsensVej81,st.th,2300KøbenhavnS",1450000.0,322000.0,3595000,78.0,46089.0,2021-12-15,100%,Almindeligfrihandel,"Etagebolig-bygning,flerfamiliehusellerto-familiehus",2009.0,66.0,12.57292361,55.61725263,"RobertJacobsensVej81,stth,2300KøbenhavnS",RobertJacobsensVej,81,1.0,2,2021,12,15
440,128290,"Hessensgade15,st.10,2300KøbenhavnS",890000.0,161400.0,2525000,61.0,41393.0,2021-12-15,100%,Almindeligfrihandel,"Etagebolig-bygning,flerfamiliehusellerto-familiehus",1970.0,54.0,12.61546683,55.66563322,"Hessensgade15,st,-10,2300KøbenhavnS",Hessensgade,15,1.0,2,2021,12,15
441,123839,"Meklenborggade4,st.tv,2300KøbenhavnS",630000.0,102800.0,1590000,36.0,44166.0,2021-12-15,100%,Almindeligfrihandel,"Etagebolig-bygning,flerfamiliehusellerto-familiehus",1903.0,28.0,12.61018171,55.66549664,"Rampelyset4A,4,-405,4000Roskilde",Meklenborggade,4,1.0,1,2021,12,15
442,144306,"Birketinget2E,4.543,2300KøbenhavnS",750000.0,123900.0,1535000,45.0,34111.0,2021-12-15,100%,Almindeligfrihandel,"Etagebolig-bygning,flerfamiliehusellerto-familiehus",1970.0,40.0,12.60045589,55.65640447,"Birketinget2E,4,-543,2300KøbenhavnS",Birketinget,2,5.0,1,2021,12,15
445,132415,"Breslaugade14,1.2,2300KøbenhavnS",630000.0,107700.0,1650000,38.0,43421.0,2021-12-15,100%,Almindeligfrihandel,"Etagebolig-bygning,flerfamiliehusellerto-familiehus",1976.0,35.0,12.61920776,55.66399654,"Hveensvej4,st,2300KøbenhavnS",Breslaugade,14,2.0,1,2021,12,15
446,134418,"ØresundParkvej2,4.th,2300KøbenhavnS",3350000.0,683900.0,10000000,153.0,65359.0,2021-12-15,100%,Almindeligfrihandel,"Etagebolig-bygning,flerfamiliehusellerto-familiehus",2003.0,141.0,12.62834095,55.6640018,"ØresundParkvej2,4th,2300KøbenhavnS",ØresundParkvej,2,5.0,4,2021,12,15
447,138717,"RobertJacobsensVej74,6.1,2300KøbenhavnS",2300000.0,540300.0,4125000,116.0,35560.0,2021-12-14,100%,Almindeligfrihandel,"Etagebolig-bygning,flerfamiliehusellerto-familiehus",2010.0,104.0,12.57194339,55.61742482,"RobertJacobsensVej74,6,-1,2300KøbenhavnS",RobertJacobsensVej,74,7.0,3,2021,12,14
448,112983,"ØrestadsBoulevard57C,2.225,2300KøbenhavnS",1900000.0,384100.0,3200000,94.0,34042.0,2021-12-14,100%,Almindeligfrihandel,"Etagebolig-bygning,flerfamiliehusellerto-familiehus",2005.0,77.0,12.58304881,55.63432078,"KongGeorgsVej37,1,2000Frederiksberg",ØrestadsBoulevard,57,3.0,2,2021,12,14
449,133750,"Øresundsvej114,st.tv,2300KøbenhavnS",1000000.0,172800.0,2456000,67.0,36656.0,2021-12-10,100%,Almindeligfrihandel,"Etagebolig-bygning,flerfamiliehusellerto-familiehus",1932.0,59.0,12.6230315,55.66132699,"Øresundsvej114,sttv,2300KøbenhavnS",Øresundsvej,114,1.0,3,2021,12,10
450,125561,"Kastrupvej50,1.a,2300KøbenhavnS",1100000.0,167500.0,2530000,66.0,38333.0,2021-12-10,100%,Almindeligfrihandel,"Etagebolig-bygning,flerfamiliehusellerto-familiehus",1970.0,58.0,12.61704456,55.65567681,"None,2300KøbenhavnS",Kastrupvej,50,2.0,3,2021,12,10
451,107710,"Uplandsgade20,3.tv,2300KøbenhavnS",3250000.0,382900.0,6795000,158.0,43006.0,2021-12-10,100%,Almindeligfrihandel,"Etagebolig-bygning,flerfamiliehusellerto-familiehus",1872.0,135.0,12.60157101,55.66712999,"Uplandsgade20,3tv,2300KøbenhavnS",Uplandsgade,20,4.0,4,2021,12,10
452,125095,"Kirkegårdsvej36,st.,2300KøbenhavnS",1650000.0,185200.0,4195000,94.0,44627.0,2021-12-05,100%,Almindeligfrihandel,"Etagebolig-bygning,flerfamiliehusellerto-familiehus",1890.0,81.0,12.61255662,55.6564975,"Granhøjen7,2900Hellerup",Kirkegårdsvej,36,1.0,4,2021,12,5
453,103746,"Weidekampsgade55,5.tv,2300KøbenhavnS",3000000.0,541800.0,6010000,107.0,56168.0,2021-12-01,100%,Almindeligfrihandel,"Etagebolig-bygning,flerfamiliehusellerto-familiehus",2006.0,95.0,12.58193975,55.66706428,"Weidekampsgade55,5tv,2300KøbenhavnS",Weidekampsgade,55,6.0,3,2021,12,1
454,130710,"Kastrupvej84,1.th,2300KøbenhavnS",900000.0,116200.0,2285000,52.0,43942.0,2021-12-01,100%,Almindeligfrihandel,"Etagebolig-bygning,flerfamiliehusellerto-familiehus",1936.0,48.0,12.61923797,55.65328207,"JohanEkmansAlle9,2770Kastrup",Kastrupvej,84,2.0,2,2021,12,1
455,132708,"Holmbladsgade81,3.tv,2300KøbenhavnS",900000.0,68500.0,2325000,52.0,44711.0,2021-12-01,100%,Almindeligfrihandel,"Etagebolig-bygning,flerfamiliehusellerto-familiehus",1905.0,45.0,12.61274674,55.66647763,"Skovalleen14,9300Sæby",Holmbladsgade,81,4.0,2,2021,12,1
456,132807,"Elbagade19,3.tv,2300KøbenhavnS",960000.0,89400.0,2250000,58.0,38793.0,2021-12-01,100%,Almindeligfrihandel,"Etagebolig-bygning,flerfamiliehusellerto-familiehus",1932.0,50.0,12.6132172,55.65368863,"Elbagade19,3tv,2300KøbenhavnS",Elbagade,19,4.0,2,2021,12,1
457,130388,"Florensvej4,2.mf,2300KøbenhavnS",480000.0,63900.0,1355000,26.0,52115.0,2021-12-01,100%,Almindeligfrihandel,"Etagebolig-bygning,flerfamiliehusellerto-familiehus",1940.0,23.0,12.62184571,55.65803302,"Florensvej4,2mf,2300KøbenhavnS",Florensvej,4,3.0,1,2021,12,1
458,133361,"Venedigvej5,3.th,2300KøbenhavnS",1100000.0,95900.0,3150000,68.0,46323.0,2021-12-01,100%,Almindeligfrihandel,"Etagebolig-bygning,flerfamiliehusellerto-familiehus",1932.0,60.0,12.62256622,55.66100354,"LysholmAlle46,4690Haslev",Venedigvej,5,4.0,3,2021,12,1
459,144304,"Birketinget2E,3.531,2300KøbenhavnS",680000.0,114600.0,1495000,42.0,35595.0,2021-12-01,100%,Almindeligfrihandel,"Etagebolig-bygning,flerfamiliehusellerto-familiehus",1970.0,37.0,12.60045589,55.65640447,"Birketinget2E,3,-531,2300KøbenhavnS",Birketinget,2,4.0,1,2021,12,1
460,132404,"Breslaugade10,3.1,2300KøbenhavnS",1250000.0,242100.0,2825000,80.0,35312.0,2021-12-01,100%,Almindeligfrihandel,"Etagebolig-bygning,flerfamiliehusellerto-familiehus",1976.0,77.0,12.61862649,55.66389662,"Breslaugade10,3,-1,2300KøbenhavnS",Breslaugade,10,4.0,2,2021,12,1
461,121005,"TomKristensensVej42,2.th,2300KøbenhavnS",1700000.0,381100.0,4495000,88.0,51079.0,2021-12-01,100%,Almindeligfrihandel,"Etagebolig-bygning,flerfamiliehusellerto-familiehus",2006.0,80.0,12.58525573,55.66149869,"TomKristensensVej42,2th,2300KøbenhavnS",TomKristensensVej,42,3.0,3,2021,12,1
464,118353,"EdvardThomsensVej13,7.th,2300KøbenhavnS",1950000.0,418400.0,4595000,92.0,49945.0,2021-12-01,100%,Almindeligfrihandel,"Etagebolig-bygning,flerfamiliehusellerto-familiehus",2007.0,87.0,12.57344112,55.63297802,"EdvardThomsensVej13,7th,2300KøbenhavnS",EdvardThomsensVej,13,8.0,3,2021,12,1
465,133886,"Ålandsgade20,st.th,2300KøbenhavnS",450000.0,167200.0,2470000,56.0,44107.0,2021-12-01,100%,Almindeligfrihandel,"Etagebolig-bygning,flerfamiliehusellerto-familiehus",1940.0,52.0,12.60643821,55.66256882,"Ålandsgade20,stth,2300KøbenhavnS",Ålandsgade,20,1.0,2,2021,12,1
466,114275,"TomKristensensVej28,st.th,2300KøbenhavnS",1400000.0,374600.0,3700000,80.0,46250.0,2021-12-01,100%,Almindeligfrihandel,"Etagebolig-bygning,flerfamiliehusellerto-familiehus",2006.0,70.0,12.58745653,55.66106573,"TomKristensensVej28,stth,2300KøbenhavnS",TomKristensensVej,28,1.0,2,2021,12,1
469,421388,"Strandlodsvej23C,9.th,2300KøbenhavnS",2100000.0,249300.0,6200000,92.0,67391.0,2021-12-01,100%,Almindeligfrihandel,"Etagebolig-bygning,flerfamiliehusellerto-familiehus",2021.0,80.0,12.62563654,55.66530886,"Strandlodsvej23C,9th,2300KøbenhavnS",Strandlodsvej,23,10.0,3,2021,12,1
470,117828,"C.F.MøllersAllé62,st.th,2300KøbenhavnS",1700000.0,356300.0,4050000,93.0,43548.0,2021-12-01,100%,Almindeligfrihandel,"Etagebolig-bygning,flerfamiliehusellerto-familiehus",2007.0,77.0,12.57824041,55.63439734,"C.F.MøllersAllé62,stth,2300KøbenhavnS",C.F.MøllersAllé,62,1.0,3,2021,12,1
471,131517,"Ungarnsgade41,1.tv,2300KøbenhavnS",1000000.0,73400.0,2700000,59.0,45762.0,2021-12-01,100%,Almindeligfrihandel,"Etagebolig-bygning,flerfamiliehusellerto-familiehus",1929.0,52.0,12.61508313,55.66256875,"Ungarnsgade41,1tv,2300KøbenhavnS",Ungarnsgade,41,2.0,2,2021,12,1
472,123842,"Meklenborggade2,st.th,2300KøbenhavnS",1650000.0,345900.0,3725000,81.0,45987.0,2021-12-01,100%,Almindeligfrihandel,"Etagebolig-bygning,flerfamiliehusellerto-familiehus",1903.0,92.0,12.61009053,55.66562585,"Meklenborggade2,stth,2300KøbenhavnS",Meklenborggade,2,1.0,3,2021,12,1
473,141102,"Hemsedalsgade7,st.th,2300KøbenhavnS",660000.0,40200.0,1600000,45.0,35555.0,2021-12-01,100%,Almindeligfrihandel,"Etagebolig-bygning,flerfamiliehusellerto-familiehus",1969.0,40.0,12.60508881,55.65898746,"Hemsedalsgade7,stth,2300KøbenhavnS",Hemsedalsgade,7,1.0,1,2021,12,1
474,110188,"JensOttoKragsGade6,7.,2300KøbenhavnS",1850000.0,288300.0,5245000,72.0,72847.0,2021-12-01,100%,Almindeligfrihandel,"Etagebolig-bygning,flerfamiliehusellerto-familiehus",2006.0,61.0,12.56824431,55.65824158,"Frydenlund96,7120VejleØst",JensOttoKragsGade,6,8.0,2,2021,12,1
475,132867,"Messinavej3,st.tv,2300KøbenhavnS",920000.0,82400.0,2385000,59.0,40423.0,2021-12-01,100%,Almindeligfrihandel,"Etagebolig-bygning,flerfamiliehusellerto-familiehus",1932.0,51.0,12.62085679,55.66104721,"Messinavej3,sttv,2300KøbenhavnS",Messinavej,3,1.0,2,2021,12,1
477,101939,"IslandsBrygge24A,2.tv,2300KøbenhavnS",3900000.0,577300.0,7767000,124.0,62637.0,2021-12-01,100%,Almindeligfrihandel,"Etagebolig-bygning,flerfamiliehusellerto-familiehus",1910.0,116.0,12.57137338,55.66305944,"IslandsBrygge24A,2tv,2300KøbenhavnS",IslandsBrygge,24,3.0,4,2021,12,1
480,109390,"C.F.MøllersAllé56,7.th,2300KøbenhavnS",1950000.0,393300.0,4195000,98.0,42806.0,2021-12-01,100%,Almindeligfrihandel,"Etagebolig-bygning,flerfamiliehusellerto-familiehus",2007.0,85.0,12.57880273,55.63443496,"C.F.MøllersAllé56,7th,2300KøbenhavnS",C.F.MøllersAllé,56,8.0,4,2021,12,1
481,133568,"Sumatravej59,st.th,2300KøbenhavnS",730000.0,189800.0,1700000,48.0,35416.0,2021-12-01,100%,Almindeligfrihandel,"Etagebolig-bygning,flerfamiliehusellerto-familiehus",1962.0,43.0,12.6336926,55.64623753,"Sumatravej59,stth,2300KøbenhavnS",Sumatravej,59,1.0,1,2021,12,1
482,138430,"PederLykkesVej52,st.tv,2300KøbenhavnS",1000000.0,204900.0,2500000,73.0,34246.0,2021-12-01,100%,Almindeligfrihandel,"Etagebolig-bygning,flerfamiliehusellerto-familiehus",1940.0,67.0,12.60334364,55.65416263,"Højdevej5,5th,2300KøbenhavnS",PederLykkesVej,52,1.0,3,2021,12,1
483,124226,"Lombardigade5,3.tv,2300KøbenhavnS",1550000.0,136400.0,4570000,89.0,51348.0,2021-12-01,100%,Almindeligfrihandel,"Etagebolig-bygning,flerfamiliehusellerto-familiehus",1903.0,82.0,12.61181396,55.65399328,"Lombardigade5,3tv,2300KøbenhavnS",Lombardigade,5,4.0,3,2021,12,1
484,135878,"Kongelundsvej69A,1.tv,2300KøbenhavnS",1200000.0,314600.0,2695000,79.0,34113.0,2021-12-01,100%,Almindeligfrihandel,"Etagebolig-bygning,flerfamiliehusellerto-familiehus",1968.0,75.0,12.58951687,55.63764785,"Kongelundsvej69A,1tv,2300KøbenhavnS",Kongelundsvej,69,2.0,3,2021,12,1
485,421365,"Strandlodsvej23C,2.tv,2300KøbenhavnS",3000000.0,374000.0,6775000,132.0,51325.0,2021-12-01,100%,Almindeligfrihandel,"Etagebolig-bygning,flerfamiliehusellerto-familiehus",2021.0,120.0,12.62563654,55.66530886,"Strandlodsvej23C,2tv,2300KøbenhavnS",Strandlodsvej,23,3.0,4,2021,12,1
486,130062,"Ungarnsgade68,4.tv,2300KøbenhavnS",1100000.0,276800.0,2495000,62.0,40241.0,2021-12-01,100%,Almindeligfrihandel,"Etagebolig-bygning,flerfamiliehusellerto-familiehus",1929.0,54.0,12.61434088,55.66275995,"Ungarnsgade68,4tv,2300KøbenhavnS",Ungarnsgade,68,5.0,2,2021,12,1
487,104184,"Thorshavnsgade21,st.th,2300KøbenhavnS",3300000.0,614100.0,7200000,127.0,56692.0,2021-12-01,100%,Almindeligfrihandel,"Etagebolig-bygning,flerfamiliehusellerto-familiehus",2006.0,115.0,12.5795578,55.66757508,"Thorshavnsgade21,stth,2300KøbenhavnS",Thorshavnsgade,21,1.0,4,2021,12,1
488,128725,"Rodosvej6,st.,2300KøbenhavnS",1600000.0,221000.0,3900000,80.0,48750.0,2021-12-01,100%,Almindeligfrihandel,"Etagebolig-bygning,flerfamiliehusellerto-familiehus",1937.0,121.0,12.61351809,55.65041523,"Rodosvej6,st,2300KøbenhavnS",Rodosvej,6,1.0,2,2021,12,1
489,135988,"SundbyParkvej2,2.th,2300KøbenhavnS",1950000.0,335700.0,5200000,90.0,57777.0,2021-12-01,100%,Almindeligfrihandel,"Etagebolig-bygning,flerfamiliehusellerto-familiehus",2007.0,77.0,12.63008906,55.66241736,"SundbyParkvej2,2th,2300KøbenhavnS",SundbyParkvej,2,3.0,3,2021,12,1
490,423065,"RobertJacobsensVej5B,5.th,2300KøbenhavnS",1900000.0,326700.0,3895000,86.0,45290.0,2021-12-01,100%,Almindeligfrihandel,"Etagebolig-bygning,flerfamiliehusellerto-familiehus",2017.0,73.0,12.5754536,55.62340128,"RobertJacobsensVej5B,5th,2300KøbenhavnS",RobertJacobsensVej,5,6.0,3,2021,12,1
491,131948,"Østrigsgade36,st.th,2300KøbenhavnS",1050000.0,102000.0,2850000,69.0,41304.0,2021-12-01,100%,Almindeligfrihandel,"Etagebolig-bygning,flerfamiliehusellerto-familiehus",1929.0,62.0,12.61535386,55.6627014,"VesterSøgade22,3tv,1601KøbenhavnV",Østrigsgade,36,1.0,3,2021,12,1
492,136763,"Kongelundsvej36,1.tv,2300KøbenhavnS",880000.0,151000.0,1995000,55.0,36272.0,2021-12-01,100%,Almindeligfrihandel,"Etagebolig-bygning,flerfamiliehusellerto-familiehus",1960.0,51.0,12.58875799,55.63992515,"Kongelundsvej36,1tv,2300KøbenhavnS",Kongelundsvej,36,2.0,2,2021,12,1
493,125127,"Amagerbrogade261A,st.th,2300KøbenhavnS",920000.0,138800.0,2045000,58.0,35258.0,2021-12-01,100%,Almindeligfrihandel,"Etagebolig-bygning,flerfamiliehusellerto-familiehus",1938.0,53.0,12.61535744,55.64467951,"Nordmarksvej4B,5800Nyborg",Amagerbrogade,261,1.0,2,2021,12,1
495,111952,"AxelHeidesGade8C,st.mf,2300KøbenhavnS",1150000.0,197500.0,2300000,49.0,46938.0,2021-12-01,100%,Almindeligfrihandel,"Etagebolig-bygning,flerfamiliehusellerto-familiehus",2005.0,40.0,12.56974125,55.66011586,"Spurvevej3,6705EsbjergØ",AxelHeidesGade,8,1.0,1,2021,12,1
496,421366,"Strandlodsvej23C,2.mf,2300KøbenhavnS",1950000.0,227000.0,4600000,85.0,54117.0,2021-12-01,100%,Almindeligfrihandel,"Etagebolig-bygning,flerfamiliehusellerto-familiehus",2021.0,73.0,12.62563654,55.66530886,"Strandlodsvej23C,2mf,2300KøbenhavnS",Strandlodsvej,23,3.0,3,2021,12,1
497,136421,"Willumsvej4A,1.2,2300KøbenhavnS",2050000.0,384700.0,3995000,93.0,42956.0,2021-12-01,100%,Almindeligfrihandel,"Etagebolig-bygning,flerfamiliehusellerto-familiehus",2006.0,80.0,12.61761388,55.64060753,"Willumsvej4A,1,-2,2300KøbenhavnS",Willumsvej,4,2.0,3,2021,12,1
